NAME,GRADE,ADDRESS,ZIPCODE,RATING,PRICE,LAT,LON,CUISINE,TAG,TEL
UNCLE TED'S,B,BLEECKER STREET,10012,4,$$,40.72882,-73.999961,Chinese,chinese lunch rice sauce fried pork,12127771395
M2N BUFFET,A,82 STREET,11373,4,$,40.7471809,-73.8841095,American,cold milk deli friendly half hard,17188032488
TOMMASO RESTAURANT,A,86 STREET,11228,3.5,$$$,40.611598,-74.010337,European,italian brooklyn delicious meal recommend sauce,17182369883
CHUBBY BURGER CHICKEN & PIZZA,A,FULTON ST,11208,1.5,$$,40.6795,-73.885353,QuickMeal,delivery phone bacon called cheese delivered,17182350300
SVG CARIBBEAN BAKERY AND RESTAURANT,A,NOSTRAND AVE,11226,4,$$,40.64651445,-73.9489954,Latin,patties ive taste bite customer establishment,17186931926
STOP & GO DELI,A,WESTCHESTER SQ,10461,4.5,$,40.83993472,-73.84282082,Other,breakfast cooked efficient friendly beat buffetking,17187920683
CHORUS MUSIC STUDIO/ CHORUS KARAOKE LOUNGE BAR,A,WEST   32 STREET,10001,3,$$,40.74789908,-73.98707271,Asian,karaoke drinks songs sing service hour,12129672244
CHANCE,B,SMITH ST,11201,4,$$,40.6842,-73.99192,Asian,drinks chance menu dumplings shrimp friendly,17182421515
JOHNNY'S REEF RESTAURANT,A,CITY ISLAND AVE,10464,4,$$,40.83770996,-73.78267053,Other,fried shrimp delicious fish water island,17188852086
DAISY PIZZA,A,36TH AVE,11106,4.5,,40.75755,-73.93146,Pizza,pizza chicken tacos cooked customer egg,17187867861
NEW LIN'S GARDEN NY,Z,CONCOURSE VLG W,10451,3,$$,40.82437953,-73.92289816,Chinese,dumplings rice chicken filet pork vegetables,17185858386
KIN KHAO THAI KITCHEN,A,AMSTERDAM AVE,10032,4,,40.84079,-73.93648,Asian,thai curry rice delicious lunch flavor,16468337939
LA CUCINA MEXICAN GRILL AND CANTINA BAR,Z,5 AVENUE,11220,3.5,$$,40.6477,-74.0074099,Latin,tacos mexican service price im nice,17189722380
696 GOURMET DELI,Z,3 AVENUE,10017,3,$,40.751987,-73.973922,Other,salad deli lunch xai spot top,12124907115
DAI HING RESTAURANT,A,SUTPHIN BLVD,11435,3,,40.7050699,-73.8091674,Chinese,chinese sauce dusty oil standard table,17185237656
LIN BAKERY & CAFE,A,4TH AVE,11220,5,,40.64213654,-74.01671313,QuickMeal,dish rice noodles served bakery chinese,17187859981
F.L.H. SEAFOOD RESTAURANT,,86 STREET,11214,3,$,40.60472107,-73.99897766,Asian,chinese family dinner lobster lot plate,17189962118
HIGH THAI,A,AVENUE U,11234,3.5,,40.60876,-73.92446,Asian,chicken thai shrimp egg roll basil,17183389700
CARAVAGGIO,A,EAST   74 STREET,10021,3.5,$$$$,40.77345657,-73.96472931,European,service dish special perfect truffle atmosphere,12122881004
LA LONCHERIA,A,WILSON AVE,11237,4.5,$$,40.702921,-73.929105,Latin,tacos happy flavor mexican tortas hour,12127294235
FIFTH AVENUE BINGO,A,5 AVENUE,11215,4.5,,40.67043875,-73.9863058,American,bingo card hall play table experience,17187881691
WB CARIBBEAN RESTAURANT,A,CHURCH AVENUE,11212,4,$,40.65493,-73.91691,Latin,oxtail spot taste wait line lunch,17183421543
SUBWAY,Z,BAY STREET,10301,3,$,40.63866,-74.076034,QuickMeal,salad fish tuna pieces veggies clean,17187271777
STARBUCKS,A,COLUMBUS AVENUE,10024,3,$$,40.783572,-73.974523,Coffee,starbucks coffee service customer visit barista,12127692296
BAGEL BOSS,B,3RD AVE,10016,3,$,40.747267,-73.977369,Other,bagel cheese cream egg ive rainbow,16463681880
GOLDEN BIRD CHINESE RESTAURANT,A,NOSTRAND AVE,11226,2,$,40.645404,-73.948711,Chinese,rice violations chicken chinese shrimp stars,17186938810
FOO-HING KITCHEN,A,SEDGWICK AVE,10468,4,$,40.87503,-73.90139,Chinese,chicken fried chinese sauce delivery pork,17188846267
APPLEBEE'S,A,FULTON STREET,11216,2,$$,40.679983,-73.946504,American,table wait service minutes seating stars,17189438000
SIDE BAR,A,EAST 15 STREET,10003,2.5,$$,40.73467,-73.98859,American,bar drinks bartender service love cheese,12126772900
LOCK YARD,,5TH AVE,11209,4,$$,40.617264,-74.029419,American,bar beer dog wings burger fried,17183335282
POTBELLY SANDWICH WORKS,A,ADAMS STREET,11201,3,$,40.692915,-73.988534,QuickMeal,sandwich potbelly chicken im salad brooklyn,12128971872
Nagoya Fusion Sushi,A,KINGS HWY,11229,3.5,$$,40.61052,-73.954472,Asian,roll sushi delivery delicious nice fresh,17183363688
NINOS RESTAURANT,A,HYLAN BOULEVARD,10305,4.5,$$,40.5982399,-74.0798,European,waiter service sauce xai dinner delicious,17184483838
BAR OMAR,A,GRAND ST,11211,4.5,$$,40.714105,-73.960824,European,chicken couscous friendly dish service delicious,17183880411
Y J FRIED FISH,A,165 STREET,11432,4.5,,40.7075699,-73.79568,Other,fish fried steamed price quality shrimp,17185261202
SIBLING'S POTATO NOODLE,B,ROOSEVELT AVE,11354,4,$,40.75933,-73.8291799,Chinese,noodles potatoes soup spicy flavor bowl,16467076565
PIZZA HAVEN,A,BROADWAY,10034,2.5,$,40.8676342,-73.9209182,Pizza,pizza slice haven service customer delivery,12125693720
SPAIN RESTAURANT & BAR,B,WEST   13 STREET,10011,3.5,$$,40.737159,-73.997917,European,tapas cash service spanish sangria free,12129299580
HAN DYNASTY,A,W 85TH ST,10024,4,$$,40.78752,-73.97647,Chinese,dan dish noodles chicken spicy dry,12128589060
BORINQUENYA DELI RESTAURANT,A,4TH AVE,11220,4,$$,40.6433431,-74.0154664,Latin,chicken rotisserie busy con dinner pick,17185679305
BONAO BAR AND GRILL,,JAMAICA AVENUE,11207,3.5,$$$,40.67903,-73.89584,Latin,drinks nice service spot stars cool,17183460285
BURGER KING,A,MYRTLE AVENUE,11237,2.5,$,40.698585,-73.918609,QuickMeal,burger king called ive meal manager,17184431001
BICKLES 2 GO,,COURTLANDT AVE,10451,4.5,$,40.81902,-73.91855,Latin,chicken cheese jerk rice taste amazing,13479634184
PEKING EXPRESS,A,PARSONS BLVD,11432,3,$,40.7075211,-73.8024661,Chinese,chicken chinese delivery fried wings people,17182063333
FULEEN PALACE,A,COLEMAN SQ,11414,3,$,40.65988,-73.83055,Chinese,fried rice chinese chicken beef palace,17188485877
ALIN SUSHI II,A,CHRYSTIE STREET,10002,3.5,$$,40.71651,-73.99503,Asian,roll sushi delivery spicy hand price,16469227282
FUEL GRILL AND JUICE BAR,A,9TH AVE,10036,3,$$,40.76181,-73.9904,American,fuel smoothie chicken healthy juice options,12126494664
POMODORO RISTORANTE,C,COLUMBUS AVENUE,10023,3.5,$$,40.776317,-73.979187,European,italian pasta bread friendly service dish,12127213009
RIVOLI PIZZA RESTAURANT,,7 AVENUE SOUTH,10014,3.5,$,40.736145,-74.0015335,Pizza,pizza slice rivoli bad crust friendly,12126912704
SACHI ASIAN THAI,A,2ND AVE,10016,3,$$,40.747635,-73.974056,Asian,roll sushi menu service xathe nice,12122971880
GULSHAN TERRACE,A,37 AVENUE,11377,4,,40.7498753,-73.9027518,Asian,accommodating appetisers dinner event hard plastic,17184574577
NICK'S LOBSTERS,A,FLATBUSH AVENUE,11234,3,$$,40.60358572,-73.91521594,Other,lobster seafood taste nicks view water,17182537117
BELLINI,A,COLUMBUS AVE,10024,3.5,$$,40.78457,-73.97317,European,italian pasta pizza wine service bellini,12127244615
LI'S GARDEN,,MAIN ST,11355,3,$$,40.7531,-73.8269,Chinese,chinese dish busy friendly portions hang,17183592108
ANGELO'S PIZZERIA,A,WEST   57 STREET,10019,4,$$,40.76492,-73.97794,Pizza,pizza pie xathe friendly service slice,12123334333
BLUE HILL RESTAURANT,,WASHINGTON PLACE,10011,4.5,$$$$,40.73206403,-73.9996931,American,dish hill menu taste blue dining,12125391776
PLAZA DELI,A,JOHN STREET,10038,3.5,$,40.70727616,-74.00500335,Other,sandwich bar salad deli hot lunch,12129437735
I LAND FISH & GRILL,B,FLATLANDS AVE,11236,4,$$,40.63537,-73.91382,Latin,seafood change dry jerk salmon service,17184446812
VAN LEEUWEN ICE CREAM,B,WYTHE AVE,11249,4,$$,40.7183199,-73.9618911,Drink&Sweets,cream ice flavor vegan chocolate friendly,19293376907
RESTAURANT TATIANA,A,BRIGHTON 6TH ST,11235,3,$$$$,40.575449,-73.961439,European,russian potatoes beach dish drinks service,17188915151
RONDEL,A,CONEY ISLAND AVE,11223,4.5,$$,40.60828,-73.9626,European,delicious ukrainian service birthday music amazing,13473719276
NATIONAL BAKERY,A,WESTCHESTER AVENUE,10472,3.5,$,40.82847,-73.87885,QuickMeal,slice win cake coffee cuban disappointed,17188422396
SHUN WON RESTAURANT,A,BROADWAY,11373,3.5,$,40.74313736,-73.88304138,Chinese,rice noodles roasted congee pork duck,17187793330
PROFESSOR THOM'S,,2 AVENUE,10003,3.5,$$,40.73204,-73.9854299,American,bar game friendly pretty bartender im,12122609480
ISTANBUL BAY,A,5TH AVE,11209,4.5,$$,40.62574793,-74.02433523,European,bread appetizer bay turkish delicious meal,19292922353
LA BAGAGUETTE SHOP,A,LINDEN BLVD,11411,3.5,$,40.7128001,-73.7684893,QuickMeal,patties bakery haitian croissant fish beef,17184682525
LA GATA GOLOSA BAKERY CAFE,A,BROADWAY,11106,4,$,40.7621022,-73.9259969,Latin,eat friendly quick beans breakfast broadway,17188061493
AMC THEATRES,A,BARTOW AVENUE,10475,2,,40.86692757,-73.8250847,American,movie theater seating line ticket amc,17183201659
GOODFELLA'S PIZZERIA,A,HYLAN BOULEVARD,10305,4,$$,40.586785,-74.091438,European,pizza vodka friendly goodfellas pie sauce,17189872422
CALIBELLA BAKERY,A,WYCKOFF AVENUE,11237,4.5,$,40.70221,-73.91631,QuickMeal,cheese bread guava amazing pan bakery,17184973614
LUZZO'S LA PIZZA NAPOLETANA,,1ST AVE,10003,4,$$,40.730551,-73.9834846,European,pizza pie bit italian friendly xa,12124737447
RIVER DOCK BAR & GRILL,,RICHMOND TER,10301,2.5,$$,40.64459309,-74.07321131,American,drinks ferry view island lobster price,17182730809
MOFONGO EL MOCANO RESTAURANT AND LOUNGE,A,MORRIS AVE,10456,3,$$,40.828643,-73.9171029,Latin,mofongo wait service minutes waiter attended,17185885103
SABI SUSHI,A,NEW YORK PLZ,10004,2,$$,40.702064,-74.012242,Asian,sushi noodles broth roll taste expect,16468632374
ARMANDO'S POLLO RICO RESTAURANT,B,JAMAICA AVENUE,11418,3.5,$$,40.6963294,-73.8376707,Latin,chicken fried service rice sauce green,17184418441
EL NUEVO TENAMPA RESTAURANTE,A,WEBSTER AVE,10458,4,,40.86579786,-73.88615292,Latin,fresh chicken black bronx burrito culinary,17182200600
EMILIO'S PIZZA,A,WEST KINGSRIDGE ROAD,0,4,$,40.86799,-73.90049,Pizza,pizza slice pepperoni pie cheese bronx,17185633665
SOB's,A,VARICK STREET,10014,3.5,$$,40.728407,-74.0052,Latin,sobs music bar venue table event,12122434940
SHIMONS KOSHER PIZZA,A,MAIN STREET,11367,3,$,40.7272495,-73.8223971,Other,pizza kosher slice shimons spinach calzone,17187931491
ABBRACADABRA MAGIC DELI,A,KNICKERBOCKER AVE,11237,4.5,,40.70359,-73.92727,Other,super options coffee friendly menu swing,13474138644
THE GRAND PROSPECT HALL,A,PROSPECT AVENUE,11215,3,,40.66358516,-73.98963422,American,wedding grand hall event prospect guests,17187880777
KINFOLK STUDIOS,A,WYTHE AVE.,11249,3.5,$$,40.72175598,-73.95833588,American,kinfolk drinks people bar night pay,13477992946
BESO,,SCHUYLER ST,10301,4,$$,40.64338255,-74.07691008,European,tapas wine beso dinner drinks nice,17188168162
GOLDEN WAY CHINESE RESTAURANT,A,CROSS BAY BOULEVARD,11417,3.5,$,40.67507,-73.842849,Chinese,chinese chicken fried thai rice shrimp,17188458899
GREGORYS COFFEE,A,BROADWAY,10012,4,$$,40.72689,-73.99575,Coffee,coffee gregorys bar pastries balls breakfast,16464787258
DENINO'S PIZZERIA TAVERN,A,PORT RICHMOND AVENUE,10302,4,$$,40.63022667,-74.14027549,Pizza,pizza island crust deninos perfect sauce,17184429401
FRAMBOISE BAKESHOP,A,DRY HARBOR ROAD,11379,3.5,$$,40.7185,-73.8724,QuickMeal,cake bakery cookies pastries owner framboise,17183261579
T.J.'S SPORTS BAR,A,FRESH POND ROAD,11378,1,$,40.71549,-73.90176,American,bar shitty maspeth stars armpit basically,17188218312
THE BLUEBELL CAFE,A,3 AVENUE,10010,4,$$,40.73845,-73.98321,American,brunch delicious friendly egg love service,16466492389
AKO JAPANESE RESTAURANT,,BEDFORD AVE,11211,4,$$,40.7169049,-73.9585858,Asian,sushi roll fresh service spicy decided,17183022035
NIMBOODA INDIAN CUISINE,A,WASHINGTON AVE,11238,4,$$,40.67825,-73.96419,Asian,chicken flavor indian service dish friendly,17186224616
EAT HERE NOW,A,LEXINGTON AVENUE,10065,2.5,$$,40.7651085,-73.9658772,American,diner service waitress walked bacon friendly,12127510724
INDUSTRY,A,WEST   52 STREET,10019,2.5,$$,40.76449,-73.98687,American,bar bouncer drinks dance people industry,16464762747
FELICE,A,1 AVENUE,10028,3.5,$$$,40.7748027,-73.95113,European,bar felice wine drinks nice cocktails,12122494080
CARIBBEAN VIBES JAMAICAN RESTAURANT AND BAKERY,A,NOSTRAND AVENUE,11226,2.5,$$,40.651219,-73.949916,Latin,customer service wait rude chicken prepared,13476639085
GO GO CURRY,A,JOHN STREET,10038,4,$,40.7098966,-74.0090997,Asian,curry katsu pork quick rice chicken,12124065555
NEW GRACE CHINESE RESTAURANT,A,MYRTLE AVE,11205,3,$,40.6933,-73.96569,Chinese,chinese stars chicken fried rice grace,17187896296
CHINA MOON OPEN KITCHEN,A,CROPSEY AVE,11214,4.5,,40.590787,-73.991399,Chinese,chinese chicken fried owner pork rice,17184494088
JOYCE BAKESHOP,A,VANDERBILT AVENUE,11238,4,$$,40.67704252,-73.96933884,European,coffee love cookies pastries service delicious,17186237470
NEW MOON CHINESE RESTAURANT,Z,3RD AVE,10016,4,$$,40.74692,-73.97766,Chinese,chinese chicken soup special dish hot,12127792828
SEASHORE RESTAURANT,A,CITY ISLAND AVE,10464,3,$$$,40.854201,-73.790912,Other,seafood lobster service crab shrimp bread,17188850300
COMMONS CAFE,B,TELEPORT DRIVE,10314,3,$$,40.60544,-74.17962,American,salad price wrap horrible chicken service,13474664207
NAGOYA,A,86TH ST,11214,3.5,$$,40.60511019,-73.9993923,Asian,roll delivery salmon sushi fresh service,17189758889
YUMMY YUMMY BROOKLYN,A,ROCKAWAY PARKWAY,11236,4,$,40.646978,-73.903965,Chinese,delivery ive customer yummy ago called,17189272900
MIRRORS ON GRAND,A,GRAND AVENUE,11238,4,$,40.68822612,-73.96293394,American,bar drinks friendly mirrors bartender owner,17186222277
HELLO BROOKLYN,,UNION AVE,11211,3.5,$$,40.7074739,-73.9503831,American,burger cheese bartender brunch fried wings,13479873008
AN CHOI,,ORCHARD STREET,10002,3.5,$$,40.71798,-73.99042,Asian,pho fried beef roll broth taro,12122263700
BAREBURGER,A,AUSTIN STREET,11375,4,$$,40.71974,-73.84298,American,burger fried bareburger chicken menu friendly,17182752273
SUBWAY,A,PORT RICHMOND AVENUE,10302,2.5,,40.62520655,-74.14488015,QuickMeal,ham bacon meat told sandwich double,17187276222
CARIDAD RESTAURANT,Z,WESTCHESTER AVE,10472,1.5,$,40.82919228,-73.87560882,European,served puerto rican service attitude chicken,19174737700
DOMINO'S,A,WESTCHESTER AVENUE,10462,1.5,$$,40.83372323,-73.85690843,Pizza,pizza called manager driver farted phone,17185188770
BLT STEAK,A,EAST 57 STREET,10022,4,$$$$,40.761162,-73.970335,Other,steak enjoyed love delicious service nice,12127527470
POLLOS A LA BRASA MARIO,A,WOODSIDE AVENUE,11377,3.5,$$,40.744736,-73.9024073,European,pollo mario chicken fried eat love,17182059898
HORUS TOO,,WEST   46 STREET,10036,2.5,$$,40.76121,-73.9919,Other,hookah drinks water friendly night service,12129569661
RESIDENCE INN BY MARRIOTT BRONX,B,EASTCHESTER RD,10461,4.5,$$,40.8493305,-73.842538,American,hotel clean nice stay breakfast free,17182393939
69th Coffee Shop,A,69TH ST,11377,3.5,$,40.736729,-73.895592,Latin,service lunch breakfast salad soup table,13476428226
BIRCH,A,COLUMBUS AVE,10025,4.5,$,40.72654,-73.99956,Coffee,coffee shop barista table birch chai,12126861444
24 HOUR FITNESS CLUB #289,,KINGS HWY,11223,2,,40.60741802,-73.96233761,Drink&Sweets,floor xa gym clean locker xai,17183769444
MR. WONTON,A,7TH AVE,11217,3.5,$$,40.67517,-73.97481,Chinese,xa wonton chinese delicious chicken dish,17183987088
FORTUNE GARDEN,A,GRAND AVE,11378,2.5,$,40.72701,-73.89401,Chinese,chicken chinese rice taste delivery disgusting,17187797383
DOS CAMINOS,A,BROADWAY,10036,3.5,$$,40.7593727,-73.9853281,Latin,tacos guacamole square times chicken meal,12129181330
ALLORA,A,E 47TH ST,10017,4.5,$$$,40.75433,-73.97277,European,waiter nice service pasta italian cheese,12127549800
EL SANCHO MEXICAN TORTERIA,A,AVENUE U,11223,4,,40.59655099,-73.97914722,Latin,delivery mexican delicious im sandwich spot,13475874996
LOKI BAR & BENCHMARK RESTAURANT,A,5 AVENUE,11215,4,$$,40.673937,-73.983064,American,loki bar menu drinks fried friendly,17189659600
PASTAFINA,A,LEXINGTON AVE,10065,2.5,$,40.766368,-73.965461,Pizza,pizza slice salad pasta top cheese,12125356240
RIN THAI CUISINE,A,WEST   23 STREET,10011,3.5,$$,40.74524,-73.99764,Asian,thai chicken noodles nice lunch xathe,12126752988
MARUMI,A,LA GUARDIA PLACE,10012,4,$$,40.7289699,-73.99837,Asian,service sushi fresh friendly sashimi tea,12129797055
PADDY MAGUIRE'S ALE HOUSE,A,THIRD AVENUE,10003,4,$,40.73642404,-73.98484631,Drink&Sweets,bar christmas decor bartender friendly pub,12122530031
PADOCA BAKERY,A,E 68TH ST,10065,4,$,40.7654836,-73.9581354,QuickMeal,bakery pdq cheese de bread queijo,12123004543
CASCABEL TAQUERIA,B,2ND AVE,10028,3.5,$$$,40.773983,-73.954178,Latin,burrito nice menu beans beef brunch,12127177800
LABELLA FERRARA,A,MULBERRY STREET,10013,4,$,40.7173118,-73.9982466,QuickMeal,cannoli bakery flavor italy delicious pastries,12129667867
PEACHES SHRIMP AND CRAB,A,CLIFTON PLACE,0,4,$$,40.6879838,-73.9625478,American,crab fried shrimp peach legs grits,17186389500
MIKE'S ISLAND GRILL RESTAURANT,A,EAST 98 STREET,11212,3,$,40.65984743,-73.91745272,Latin,jerk rice chicken drinks ginger fish,17183463494
GLEN ROY BAR AND GRILL,A,EAST  149 STREET,10451,4.5,$,40.8926366,-74.03195751,American,bar drinks typical stop love night,17189939804
NEGRIL,A,WEST    3 STREET,10012,3.5,$$,40.729352,-73.9983558,Latin,drinks jerk oxtail service chicken love,12124772804
CONNECTICUT MUFFIN,A,PROSPECT PARK WEST,11215,3,$,40.6607736,-73.98028328,QuickMeal,muffin coffee bagel latte chai customer,17189652067
BEA,,W 43RD STREET,10036,4,$$,40.7591968,-73.9923361,American,brunch dish menu delicious nice bottomless,12126021910
SUGARDADDY'S,A,27TH ST,11101,3.5,$$,40.739529,-73.9426222,American,club friendly girl dance nice bartender,17187069600
HAPPY HOUSE SEAFOOD RESTAURANT,Z,8TH AVE,11220,3.5,$,40.64090729,-74.00429535,Chinese,bun meat speak bao æˆ‘ chinese,17188718893
LOS COMPADRES RESTAURANT,A,3 AVENUE,11220,4.5,,40.64496,-74.01785,Latin,beer chicken im nice pretty price,17184393727
ROTI ROLL / SUITE,,AMSTERDAM AVENUE,10025,4,$,40.8026,-73.96437,Asian,roll roti chicken frankie indian fried,12126661500
SABROSURA DOMINICANA RESTAURANT,A,48 AVENUE,11377,3.5,$,40.7388916,-73.9181366,European,dominican im pollo delicious ive lunch,13478080258
J & R's DOSA GARDEN,A,VICTORY BLVD,10301,4,$$,40.63432693,-74.08577728,Asian,dosa delivery chicken delicious garden love,17184200919
HIBERNIA,A,WEST   50 STREET,10019,4.5,$$,40.76365,-73.9890999,European,bar sports irish steelers friendly crowded,12129699703
CAFE LA MORENA & DELI,A,3 AVENUE,11232,4.5,,40.655667,-74.006917,European,lunch breakfast city fresh industry quick,17187886478
The STARLIGHT,,GRAND ST,11211,4,$$,40.710975,-73.948059,American,burger cheese bar chicken steak nice,17184863700
WXYZ BAR,A,ANN ST,10038,5,$$,40.71035,-74.00679,American,karaoke bartender busy check danee drinks,12125130003
EL SABROSO RESTAURANT,Z,W 37TH ST,10018,4,$,40.75408435,-73.99149001,Latin,chicken rice lunch beans seating meat,12122841118
MIRCH,A,HILLSIDE AVE,11432,3.5,$$,40.71196314,-73.78996655,Asian,burger chicken service drinks steak fat,17182628100
FOOLS GOLD,A,E HOUSTON ST,10002,4,$$,40.7231079,-73.9897536,American,drinks bar beer friendly night love,12126732337
TRELAWNI PLACE,Z,UTICA AVE,11203,2.5,$$,40.63724164,-73.92918694,American,drinks minutes menu waitress wings bar,13474926100
MI BELLA DAMA RESTAURANT,A,KNICKERBOCKER AVENUE,11237,3,$$,40.70162201,-73.92378998,European,spanish dominican speak walked bit customer,17186284253
PIZZA STOP,A,LENOX AVENUE,10037,3.5,$,40.815358,-73.940411,Pizza,pizza slice pie chicken cheese delivery,12122343131
DJ REYNOLDS PUB AND RESTAURANT,A,WEST   57 STREET,10019,3.5,$$,40.76775,-73.98487,European,bartender bar beer drinks service pub,12122452912
DAVID'S BRISKET HOUSE,A,NOSTRAND AVE,11216,4.5,$$,40.679434,-73.949515,American,pastrami meat brisket sandwich beef david,17187891155
STARBUCKS,A,37 AVENUE,11372,3,$$,40.749561,-73.887374,Coffee,drinks starbucks people wifi barista coffee,17184570875
SISTINA,A,E 81ST ST,10028,3.5,$$$$,40.77455926,-73.95441193,European,special service table dessert nice birthday,12128617660
BEACON BAR,A,BROADWAY,10023,3.5,$$,40.780685,-73.981041,American,hotel stay beacon clean door friendly,12127871100
KAL BAKERY & RESTAURANT,A,CHURCH AVENUE,11203,3.5,$,40.65126,-73.945593,Latin,haitian customer service im ive cheese,17184628786
CUPS AND CONES,A,ROCKAWAY BOULEVARD,11420,5,,40.672834,-73.832588,Drink&Sweets,accept choice counter fan fast im,17182153308
CHARRUA,,ESSEX ST,10002,4,$$,40.72004,-73.9876,European,sandwich flan sauce service xathe nice,12126775838
LA MESITA,A,MYRTLE AVE,11237,4,$,40.6992569,-73.9152222,Latin,burrito mexican chicken delicious rice salsa,17183668700
SABOR ANDINO,A,14 AVENUE,11219,4,$$,40.6256714,-73.9986267,Latin,chicken steak attentive bad ecuadorian flavor,17182362030
ALICE'S TEA CUP,A,EAST   81 STREET,10028,3.5,$$,40.775092,-73.955404,American,tea scones friendly service pot wait,12127344832
SANCTUARY T,B,WEST BROADWAY,10013,3.5,$$,40.7223798,-74.0035218,American,tea cocktails drinks cheese class friendly,12129417832
IL RICCIO RESTAURANT,A,E 79TH ST,10075,3,$$,40.77466,-73.95879,European,xathe pasta called service riccio delicious,12126399111
METROPOLITAN,A,LORIMER STREET,11211,3.5,$,40.71363,-73.94948,American,bar drinks people love friendly bartender,17185994444
NEW MEI MEI CHINESE RESTAURANT,A,NOSTRAND AVENUE,11229,4,$$,40.5969532,-73.9413834,Chinese,chinese mei delivery love bland chicken,17187431054
ANNIES FIRST WOK RESTAURANT,,YORK STREET,11201,5,,40.70154,-73.98456,Chinese,chinese continue customer remodeled sign american,17188524383
PINKBERRY,A,BROADWAY,10025,3,$$,40.805478,-73.966252,Drink&Sweets,flavor pinkberry top yogurt froyo frozen,12122220191
GETTING HUNGRY,A,VARICK ST,10014,3,$,40.72899,-74.00545,Other,pasta line lunch meatballs bagel sandwich,12124630600
BAKE RIDGE BAGEL,B,3 AVENUE,0,2.5,$,40.617376,-74.0333572,QuickMeal,bagel service wait cheese fresh people,17186806353
MCDONALD'S,A,31ST ST,11106,2.5,$,40.76061516,-73.92614625,QuickMeal,mcdonalds manager customer service cashier lot,17185456803
CHAMPION BAKERY,B,WHITE PLAINS ROAD,10466,4,$,40.88791,-73.8602,Other,patties bread bakery beef crust jamaican,17187981203
BAILEY SEAFOOD MARKET & RESTAURANT,A,W 231ST ST,10463,2.5,$$$,40.878063,-73.902848,Other,fried cooked fish shrimp crinkle delivery,13479646295
BAR VERDE,,2 AVENUE,10003,4.5,$$,40.72608491,-73.98973614,Latin,vegan tacos mexican taste service amazing,12127776965
EL RUMBERO BAR RESTAURANT,,NORTHERN BOULEVARD,11372,3.5,,40.75574751,-73.88504869,Latin,service amazing cooked drinks es night,17188033125
LITTLENECK OUTPOST,A,FRANKLIN ST,11222,3.5,$$,40.729301,-73.957227,American,coffee sandwich egg ive table avocado,17183833080
DIRTY PIERRES BISTRO,A,STATION SQUARE,11375,4,$$,40.71924043,-73.84510402,European,drinks friendly mussels love busy dirty,17188309698
PABLO'S RESTAURANT,,NEWKIRK PLAZA,11226,3.5,$,40.63518536,-73.9626749,American,breakfast waffle bacon meal chicken lunch,17184217603
DADDYO'S ON BAY,A,BAY ST,10301,3.5,$$,40.637464,-74.0754962,Other,cheese brisket bbq friendly service wait,17182854096
TARO ASIAN FOOD RESTAURANT,,13 AVENUE,11228,4,$$,40.622196,-74.005028,Chinese,sushi roll lunch lobster xathe huge,17182324680
LEDERHOSEN RESTAURANT,A,GROVE STREET,10014,4,$$,40.73295,-74.00454,European,german beer bar love lederhosen potatoes,12122067691
GREAT SICHUAN,A,3RD AVE,10016,3.5,$$,40.74082,-73.98127,Chinese,chinese lunch dish pretty service soup,12126868866
LE CAFE COFFEE,A,EAST 14TH STREET,10003,4.5,$$,40.73574608,-73.99287422,American,coffee latte lavender drinks perfect friendly,12123651060
HOTEL PIERRE-MAIN KITCHEN,A,EAST   61 STREET,10065,4.5,$$$$,40.765242,-73.972014,American,hotel service tea pierre beautiful nice,12128388000
EAST MEETS WEST CHINESE RESTAURANT,A,CROSS BAY BOULEVARD,11414,2.5,$,40.654906,-73.839257,Chinese,xathe chinese customer amys eat fried,17183230600
DIRTY BIRD TO-GO,A,WEST   14 STREET,10011,3.5,$$,40.73875,-74.00053,QuickMeal,chicken cheese fried dirty fingers bird,12126204836
THE PAPER BOX,A,MEADOW STREET,11206,5,,40.71087265,-73.9365921,American,guys accommodating geared nice rehearsal space,17183833815
NEW UNIVERSITY DELI,Z,WEST  168 STREET,10032,3,$,40.8413136,-73.9399992,Other,bar lunch deli sandwich buffet salad,12125683838
BKLN DINER,A,AVENUE N,11234,3,$$,40.61942,-73.9175099,American,diner breakfast wait delivery coffee egg,17182092246
BUFFALO WILD WINGS GRILL & BAR,A,20TH AVE,11356,2,$$,40.7821,-73.8337899,QuickMeal,wings wait drinks service table buffalo,17183539453
POPEYES LOUISIANA KITCHEN,A,EAST  233 STREET,10466,1.5,$,40.88941,-73.84335,QuickMeal,popeyes chicken clean customer employees horrible,13479454700
PHO BAC VIETNAMESE SEAFOOD CUISINE,A,BROADWAY,11373,3,$,40.74129888,-73.88130747,Asian,pho roll spring eat service bowl,17186390000
"DUNKIN' DONUTS, BASKIN ROBBINS",A,FLUSHING AVENUE,11378,1.5,$,40.72142792,-73.90392303,QuickMeal,cream ice baskin freezer friendly robbins,17184170918
ROUGH TRADE,A,N 9TH ST,11249,4,$$,40.720878,-73.959945,Drink&Sweets,record store concert vinyl rough space,17183884111
PIG 'N' WHISTLE,A,WEST   48 STREET,10036,3,$$,40.75784627,-73.98016293,European,drinks wasnt xai irish nice pretty,12128190095
NEW FRESH PIZZA,A,CHURCH AVE,11226,3.5,$,40.6506679,-73.95222966,Pizza,pizza slice fresh delivery crust called,13474446552
REAL THAI CUISINE,,9TH AVE,10018,3,$$,40.75669,-73.99369,Asian,thai pad chicken noodles lunch flavor,19172615407
DARINA CAFE,A,SAND LANE,10305,3.5,,40.59217,-74.0678,European,russian party xathe birthday fresh chicken,17183514413
BAR BOLONAT,,HUDSON ST,10014,4,$$$,40.73766873,-74.00585754,European,dish love perfect bar flavor bolonat,12123901545
THE WEST CAFE,,UNION AVENUE,11211,4,$$,40.711757,-73.951537,American,coffee spot drinks bar friendly nice,17185991704
LA SUPERIOR,A,BERRY STREET,11249,3.5,$$,40.71357,-73.96363,Latin,tacos la superior cash fish guacamole,17183885988
CAFE ALICE,A,EAST   47 STREET,10017,3,$$,40.75651721,-73.9778551,Other,lunch sandwich salad alice cafe deli,12128886969
PLANET WINGS,A,FOREST AVENUE,10310,1.5,$$,40.63035,-74.1062,American,wings delivery chicken called fried cheese,17187209464
DELICIOUS PIZZA CAFE,A,W KINGSBRIDGE RD,10463,5,,40.87322,-73.90555,Pizza,served american breakfast busy delicious diner,17188845501
MCDONALD'S,A,UTICA AVENUE,11203,2.5,$,40.65613836,-73.93057643,QuickMeal,mcdonalds money rude attitude bad beggar,17187780023
TEA DRUNK,A,EAST 7TH STREET,10009,4,$$,40.72643,-73.98419,Chinese,tea taste experience drunk owner chinese,19175739936
DOLCE VITA,A,AVENUE N,11234,4.5,$$$,40.619697,-73.918792,European,xa owner wine dinner service drinks,17184443537
COCO MALAYSIA CUISINE,A,BROADWAY,11373,3.5,$$,40.741662,-73.8804985,Asian,rice chicken dish curry flavor delicious,17185652030
YO SUSHI,B,3RD AVE,10003,3,$$,40.736036,-73.9853697,Asian,roll sushi xathe fresh salad special,12126776921
HAMPTON CHUTNEY CO,A,GRAND ST,10013,4,$$,40.97416843,-72.14099261,Asian,dosa chutney dish seating cheese mango,16312673131
PIO BAGEL,A,LAWRENCE ST,11201,3.5,$,40.6920693,-73.9865172,QuickMeal,bagel cheese cream breakfast fresh bacon,17182372777
LA BELLEZZA PIZZERIA,A,BROADWAY,10007,4,$$,40.71574,-74.00538,Pizza,slice pizza cheese crust spot chicken,12122273337
YUMMY CHUMMY,B,8TH AVE,11220,4,$,40.63338291,-74.01133496,Chinese,rice meat duck price roasted congee,17188364968
MURRAY HILL DINER,A,LEXINGTON AVENUE,10016,3.5,$$,40.74605105,-73.980296,American,diner breakfast service egg coffee friendly,12126866667
JONGRO BBQ,A,ROOSEVELT AVE,11354,3.5,$$,40.7638494,-73.8098454,Asian,meat seafood table korean bbq lot,17189399330
FRESH & CO,A,MADISON AVE,10017,2.5,$$,40.7525863,-73.9792344,QuickMeal,salad bowl fresh sandwich lunch chicken,12125337374
TOPAZ NOODLE BAR,A,W 56TH ST,10019,4,$$,40.76444244,-73.97897339,Asian,thai noodles xa fried pad service,12122472277
TAM PO PO RAMEN,A,BENNETT AVE,10033,4,$$,40.850719,-73.936309,Asian,ramen miso chicken spicy noodles broth,12129230575
GAL BI MA EUL,A,NORTHERN BOULEVARD,11358,3.5,$$,40.7582,-73.78716,Asian,korean dish bbq galbi friendly pretty,17188192171
BAYARD SUSHI,A,BAYARD ST,10013,3.5,,40.7156069,-73.99895724,Asian,sushi fresh spot check chinatown consistent,16469227808
MYUNG SAN RESTAURANT,A,DEPOT ROAD,11358,4,$$,40.76212569,-73.80310312,Asian,korean crab soup dish banchan friendly,17188881245
DELFINI,A,TIFFANY ST,10474,2.5,$,40.809995,-73.889957,American,salad chicken fried delivery dressing egg,17189911337
TAQUERIA ST MARKS PL,A,SAINT MARKS PL,10003,4,$$,40.72785878,-73.98561381,Latin,tacos chips friendly margarita mexican salsa,16469645614
EL PASO TAQUERIA,C,EAST   97 STREET,10029,3,$$,40.7872963,-73.95281219,Latin,burrito tacos guacamole pretty delicious im,12129961739
RUZANA,,85TH ST,11209,4.5,$,40.62217218,-74.0260157,European,chicken platter shawarma delicious phone table,13476626208
UNCLE JACK'S STEAKHOUSE,A,9 AVENUE,10001,3.5,$$$$,40.75367,-73.99549,Other,steak steakhouse service dinner bread cooked,12122440005
BAHAR TURKISH RESTAURANT,,METROPOLITAN AVE,11375,3.5,$$,40.71056,-73.85035,Other,turkish service experience table friendly im,17185440400
WESTVILLE,A,WEST   10 STREET,10014,4,$$,40.7340046,-74.0041863,American,westville fried market friendly cheese chicken,12127417971
1080 BREW,A,WYCKOFF AVE,11385,4.5,$$,40.6942764,-73.9027486,Coffee,coffee nice friendly love sandwich service,13474849220
NATHANIEL'S BAKERY,A,UTOPIA PKWY,11357,5,$$,40.779532,-73.7941737,QuickMeal,cake bakery delicious cupcakes sweet donuts,17189711096
TEA BAR,A,DRIGGS AVENUE,11211,4,$,40.7181702,-73.9555511,Coffee,tea coffee nice selection love green,16463616839
GREGORYS COFFEE,A,E 46TH ST,10017,4,$$,40.75554,-73.9781,Coffee,coffee chocolate gregorys delicious drinks latte,12126611722
LITTLE TONINO'S PIZZA & CAFE,A,GREENWOOD AVE,11218,3.5,$,40.65072,-73.97706,Pizza,pizza slice brooklyn pie called delivery,17184387088
CHINA DOLL,A,LORING AVENUE,11208,3,$,40.66718,-73.86076,Chinese,im delivery soup cold container family,17182355739
BLANCA,A,MOORE,0,4,$$,40.70504353,-73.93357123,European,pizza robertas wait pie sting bee,17184171118
MCDONALD'S,A,MYRTLE AVENUE,11385,2.5,$,40.6994159,-73.9110408,QuickMeal,mcdonalds hour xathe bad clean close,17184567287
ELITE PASTRIES CAFE,A,BELL BLVD,11361,3.5,$$,40.75597,-73.7674637,QuickMeal,pastries cookies price cake bakery elite,17184234400
CAFFE E VINO,Z,DEKALB AVENUE,11201,4,$$,40.68971,-73.97827,European,italian service chicken nice price special,17188556222
SILVER SPOON DINER,B,JUNCTION BLVD,11373,3,$,40.7358444,-73.8652352,American,diner breakfast im bacon egg fried,17183933000
IGUANA RESTAURANT,B,WEST   54 STREET,10019,3,$$,40.7642063,-73.9832105,Latin,check friendly night iguanas server service,12127655454
WAH HING KITCHEN,A,ROCKAWAY BLVD,11420,4,$,40.6755799,-73.8121199,Chinese,chinese spot delivery chicken coming customer,17187382281
SLICE OF BROOKLYN  INC.,B,4TH AVE,11232,3.5,$,40.65691,-74.00143,Pizza,pizza slice brooklyn chicken ive cheese,17184992121
TANTRA LOUNGE,A,31 STREET,11106,3,$$,40.757,-73.9298,Latin,bottle charge music drinks table tip,17189374574
VSPOT ORGANIC,B,SAINT MARKS PL,10003,4,$$,40.729113,-73.989209,Latin,empanadas burger service vegan danny waitress,12122543693
MELODY CAFE & RESTAURANT,A,STEINWAY STREET,11103,1.5,$$,40.76554489,-73.91329193,European,drinks bouncer friendly night waiter hookah,17187771514
TOMO JAPANESE RESTAURANT,,AMBOY ROAD,10312,4,$$,40.54293,-74.16558,Asian,sushi roll fresh love taste xathe,17182275100
SAL'S FAMILY PIZZA,A,BROOME STREET,10013,3.5,$$,40.72050272,-73.99669114,Pizza,pizza slice italy front im service,12129250440
GA HWA KOREAN RESTAURANT,,NORTHERN BOULEVARD,11358,3.5,$$,40.7575778,-73.7916428,Asian,korean soup delicious kimchi rice beef,17188887734
PAPA JOHN'S,A,45TH AVE,11355,2.5,$,40.755444,-73.814734,Pizza,pizza delivery ive john papa stars,17184637272
YUMMY CAFE HOUSE,A,AVENUE U,11229,3.5,$,40.59911,-73.95618,QuickMeal,cake ice chinese egg tea bakery,17189982229
CAFFE DEI FIORI RISTORANTE,A,LEXINGTON AVE,10021,4.5,$$$,40.76935,-73.9627,European,love friendly pasta delicious italian service,12123273400
THE STOREHOUSE,A,WEST 23 STREET,10010,3.5,$$,40.74273281,-73.99217612,American,drinks fried bar chicken beer burger,12122438898
OVOSODO,A,QUEENS BLVD,11375,3.5,$$,40.71905807,-73.83934546,European,pizza sauce menu xathe brunch cheese,17184873524
THE LIGHTS OF BAKU,A,86 STREET,11223,2.5,$$,40.59493,-73.98171,European,party xathe bad hour music served,17182669191
VILLA MONTE RESTAURANT & PIZZERIA,A,AMBOY ROAD,10307,3,$$,40.516627,-74.234482,Pizza,pizza chicken service monte nice roll,17189849886
BAGEL TREE,A,E 124TH ST,10035,3.5,$,40.802263,-73.934181,QuickMeal,bagel fresh friendly breakfast clean coffee,16465598912
DYCKMAN BAR,,DYCKMAN STREET,10034,3,$$,40.86582391,-73.92732721,American,bar drinks happy hour night friendly,16463603018
JOJU & JOJU BOWL,A,BROADWAY,11373,4.5,$,40.74070517,-73.87935018,QuickMeal,joju sandwich mi fried banh pork,13478080887
PEASANT,A,ELIZABETH STREET,10012,3.5,$$$,40.72171,-73.99428,American,pasta dish delicious pizza bread wine,12129659511
PATRON MEXICAN GRILL,A,9 AVENUE,10036,3,$$,40.75923,-73.99173,Latin,drinks margarita table seating service friendly,12129579050
SORRY NOT SORRY,A,AUSTIN ST,11375,3.5,$$,40.72080038,-73.8463942,European,bar gay friendly drinks music bartender,17182637743
SARAVANA BHAVAN,A,LEXINGTON AVENUE,10016,3.5,$$,40.7414,-73.98306,Asian,dosa indian south service table friendly,12126847755
BP SUB EXPRESS,A,13 AVENUE,11219,3.5,$$,40.6330405,-73.9939503,Other,sandwich service wait fried hour cholent,17189720010
DUNKIN' DONUTS,A,AVENUE D,11236,1.5,$,40.6456795,-73.9130402,QuickMeal,coffee donuts dunkin people service breakfast,17184511213
LANDIN MACARONI & CHEESE,A,MELROSE AVE,10455,4,$,40.8200475,-73.9161737,Latin,cheese bacon chicken bronx hot taste,13477264217
CHASERS,A,FLUSHING AVENUE,11378,5,$$,40.720382,-73.905494,European,nice bar kitchen local afternoon ambiance,17183262973
ANGEL'S CAFE,A,E 187TH ST,10458,4,$,40.85386,-73.88387,Latin,chicken angel mexican night amazing grilled,17183298828
SAIGON SHACK,A,MACDOUGAL STREET,10012,4,$,40.72969,-74.000629,Asian,pho broth meat beef saigon shack,12122280588
PAPA JOHN'S,A,5 AVENUE,11220,2,$$,40.6405496,-74.0152645,Pizza,pizza delivery john papa called minutes,17189217272
KROLEWSKIE JADLO,,MANHATTAN AVENUE,11222,4,$$,40.72532,-73.95153,European,polish delicious pierogies stuffed borscht meal,17183838993
SID GOLD'S REQUEST ROOM,A,W 26TH ST,10001,4,$$,40.74595642,-73.99358368,American,piano bar karaoke cocktails night front,12122291948
QUEEN'S PIZZA,A,QUEENS BOULEVARD,11375,2.5,$,40.7157004,-73.8335836,Pizza,pizza falafel taste cheese stars im,17185445800
SARGE'S,A,3 AVENUE,10016,4,$$,40.74732795,-73.97720179,Other,sandwich pastrami deli meat sarges beef,12126790442
KROLEWSKIE JADLO,A,FRESH POND ROAD,11385,4,$$,40.70837,-73.89764,European,polish potatoes taste dish flavor ive,17183666226
EMPIRE RESTAURANT,A,7TH AVE,10030,3,,40.81914,-73.94038,Chinese,chicken egg fast health roll soup,12128625660
THE VANDERBILT,A,VANDERBILT AVENUE,11238,3,$$,40.6796,-73.968447,American,brunch menu table xathe night service,17186230570
JOHN BROWN SMOKEHOUSE,A,44 DRIVE,11101,4,$$,40.7489,-73.95009,American,meat bbq cheese brisket pork ribs,13476171120
ROSEBANK PIZZA,A,BAY ST,10305,4,$,40.6100608,-74.06329161,Pizza,pizza chicken vegetarian cheese garlic slice,17184475300
RIDGEWAY DINER,A,6 AVENUE,10010,3.5,$$,40.741217,-73.993675,American,diner breakfast friendly chicken eat quick,12127410096
ARBY'S,,HORACE HARDING EXPRESSWAY,11365,3,$,40.73846988,-73.79395366,QuickMeal,arbys fried sauce fast beef curly,17188880444
ORIENTAL GARDEN RESTAURANT,A,ELIZABETH STREET,10013,4,$$,40.7159199,-73.9972499,Chinese,dim sum dumplings dish shrimp service,12126190085
ENTHAICE THAI KITCHEN,A,31 AVENUE,11106,4,$$,40.76308893,-73.92132372,Asian,thai service dish pad curry delicious,17189321111
BAGEL MARKET,A,7TH AVE,11215,3,$$,40.67418,-73.97581,Other,bagel cheese cream toast lox sandwich,17182304700
BOCCA DI BACCO,A,9 AVENUE,10011,3.5,$$,40.7445631,-74.0030779,European,menu nice service bit friendly brunch,12129898400
SUBWAY,A,COLUMBUS AVENUE,10025,2,$,40.7924327,-73.9676601,QuickMeal,subway sandwich employees clean change xathe,12122226014
DA NOI RESTAURANT,A,VICTORY BOULEVARD,10314,4,$$$,40.58769,-74.19692,European,waiter friendly love service nice wait,17189825040
KRISS WEST INDIAN RESTAURANT,A,FARMERS BOULEVARD,11412,3,$,40.700467,-73.764465,Latin,jerk shrimp chicken oxtail meal spot,17184549300
SUKI,A,E 7TH ST,10003,4.5,,40.72702,-73.98608,Asian,curry katsu pork seating spicy perfect,19179996672
NAMASTE INDIAN CUISINE,A,30 AVENUE,11102,4,$$,40.7668,-73.92068,Asian,chicken indian dish naan buffet masala,17186262783
STARBUCKS,A,BROADWAY,10036,3,$$,40.759636,-73.985222,Coffee,starbucks coffee drinks service customer minutes,12125417515
PIZZA MERCATO,A,WAVERLY PL,10003,3.5,$,40.73015,-73.9941599,Pizza,pizza slice cheese garlic amazing eat,12124208432
WEBSTER CAFE,A,WEBSTER AVENUE,10458,3.5,$,40.86729,-73.88391,American,diner mexican service botanical cafe cheese,17187339634
BURKE & WILLS/MANHATTAN CRICKET CLUB,,W 79TH ST,10024,4,$$$,40.7833619,-73.979579,Other,friendly drinks bar menu cocktails dining,16468239251
ABC KITCHEN,A,EAST   18 STREET,10003,4,$$$,40.738085,-73.989472,American,salad dish xathe fresh perfect table,12124755829
CHIPOTLE MEXICAN GRILL,A,3RD AVE,10458,2.5,$$,40.85991673,-73.89107121,Latin,chipotle service clean customer experience manager,17182201276
TOKYO HOUSE JAPANESE RESTAURANT,A,RIVERDALE AVENUE,10471,4,$$,40.9056206,-73.9040833,Asian,sushi fresh ive roll teriyaki chicken,17186016877
KISSENA CAFE,A,KISSENA BOULEVARD,11355,4.5,,40.7398181,-73.8153168,Chinese,noodles wonton shrimp beef soup stew,17188860689
BIENVENIDOS AL CALLAO RESTAURANT,A,ROOSEVELT AVENUE,11368,3,$$,40.7515793,-73.8548813,Latin,fish service lol attentive called delivery,17187799400
RIAZOR BLUE TAPAS BAR,B,NORTHERN BOULEVARD,11372,5,,40.7563963,-73.8785572,European,music spanish walked xait attentive bartender,17184248464
DYKER PARK BAGELS,A,86 STREET,11228,4,$,40.61884,-74.02149,Other,bagel chicken sandwich bill fresh xai,17188366336
V {iv} Thai Restaurant & Bar,A,EAST   34 STREET,10016,3.5,$$,40.74601,-73.9795,Asian,thai lunch pad appetizer friendly fried,12122133317
FU RUN DONG BEI,,PRINCE ST,11354,4,$$,40.758782,-73.831712,Chinese,lamb dish chops pork chinese muslim,17183211363
MESA AZTECA,A,WYCKOFF AVENUE,11237,4,$$,40.70506,-73.92022,Latin,amazing mexican tacos margarita taste bartender,13473782838
GOTAN,A,FRANKLIN ST,10013,4,$$,40.719255,-74.006607,European,salad sandwich avocado tuna ive love,12124315200
WAHI OYSTER BAR / WAHIZZA,B,BROADWAY,10040,4,$$,40.85757,-73.93197,Other,drinks oysters menu brunch friendly service,12125019244
TAIKI AND RICE & MISO,A,NEVINS ST,11217,4.5,$$,40.68454362,-73.98377761,Asian,rice balls bento box miso chicken,19292793488
LODUCA'S PIZZA,A,NEWKIRK PLAZA,11226,4.5,$,40.63494002,-73.96258121,Pizza,pizza slice guys brooklyn friendly love,17188591501
HIGH DIVE,B,FIFTH AVENUE,11215,4,$,40.6749,-73.98118,American,bar dive popcorn beer free drinks,17187880401
QUEZADA RESTAURANT,A,FLATBUSH AVENUE,11226,3.5,$,40.640697,-73.956184,Latin,chicken rice flavor fried mofongo plantains,17182820622
GRILL ON LEE,A,LEE AVENUE,11211,3.5,$$,40.70446412,-73.958707,Other,xahe xai chicken fast ive mouse,17189632700
SCREAMER'S PIZZERIA,,FRANKLIN AVE,11238,3.5,,40.67512,-73.95623,Pizza,pizza vegan cheese slice pie screamers,17186236000
FOUNDRY KITCHEN & BAR,A,W 43RD ST,10036,3.5,$$$,40.75771697,-73.9889697,American,hotel stay check times bed square,12122012700
LAS CONCHITAS BAKERY,,5 AVENUE,11220,4.5,$,40.64579,-74.00941,Latin,bread sweet mexican fresh bakery coffee,17184375513
ISLAND TRINI BURGER,B,NOSTRAND AVE,11210,3.5,$,40.6345,-73.94766,Latin,fried burger sauce salad wait customer,13477899955
GRACIE-MEWS RESTAURANT,B,1 AVENUE,10028,3.5,$$,40.7733348,-73.95189218,American,diner fried friendly cheese chicken gracie,12128612290
AJISEN RAMEN,A,MOTT STREET,10013,3.5,$$,40.71414613,-73.99863395,Asian,ramen ajisen broth pork chinatown noodles,12122679680
INDIAN KITCHEN,B,GRAND ST,11211,4,$$,40.71199,-73.94332,Asian,indian chicken delivery dish kitchen love,17182187600
MAYA CUISINE,A,STEINWAY ST,11103,3.5,$$,40.76819,-73.9117799,European,yemeni lamb service delicious price bread,17187773131
B AND B RESTAURANT,A,WEST   26 STREET,10001,4.5,$,40.7459112,-73.9936086,Other,chicken sauce delicious rice buffet flavor,16464298174
BARNES & NOBLE CAFE,C,LEXINGTON AVE,10010,3,$$,40.74072723,-73.98378968,Coffee,starbucks cafe drinks bookstore service friendly,16463124850
MR. WONTON,Z,JACKSON AVENUE,11101,2,$,40.746978,-73.941986,Chinese,chinese chicken taste fried rice sauce,17184821117
COFFEE TOSSY,A,GREENPOINT AVE,11104,4,$,40.74045795,-73.92264135,QuickMeal,xa coffee spot cafe busy cup,19295220944
PIZZA CHEF,A,WEST  235 STREET,10463,3.5,$,40.88555527,-73.91035461,Pizza,pizza chicken slice top delivery chef,17187964500
EAST BROADWAY RESTAURANT,Z,EAST BROADWAY,10002,3.5,$,40.71397,-73.99358,Chinese,soup fujianese noodles service speak chinatown,12126251080
CHECKERS,A,MYRTLE AVE,11206,5,,40.69688822,-73.93568991,QuickMeal,burger chicken fried checkersits cokethe coming,13477894250
SCOPA,A,7TH AVE,10011,4,,40.74295,-73.99627,European,love friendly service waiter bread night,16468583300
WIN HING CHINESE RESTAURANT,A,SEAVIEW AVENUE,11236,3.5,$,40.63395,-73.88852,Chinese,chinese taste beef cooked delivered oysters,17182091888
PIETRO NOLITA,A,ELIZABETH ST,10012,3,$$,40.721,-73.99463,European,pink friendly table cash service cute,16469984999
CARVEL ICE CREAM,A,FRANCIS LEWIS BOULEVARD,11358,4.5,$$,40.770749,-73.793884,Drink&Sweets,cream carvel ice friendly cake love,17184610512
TACO VELOZ,A,ROOSEVELT AVENUE,11368,3.5,$,40.7478497,-73.88027697,Latin,cold sauce chicken green hot tacos,17187795608
GYRO KING,B,WALTON AVENUE,10468,4,$,40.86227,-73.90019,European,gyro king meat taste coming ive,17189336664
DAIRY QUEEN GRILL & CHILL,A,FERRY TERMINAL DR,0,3,$,40.644126,-74.072448,American,dq blizzard queens dairy burger chicken,17184476035
MOTI MAHAL DELUX,A,1 AVENUE,10065,4,$$,40.76213,-73.9605,Asian,chicken butter dish lunch naan indian,12123713535
GOLDEN KRUST CARIBBEAN BAKERY & GRILL,A,NOSTRAND AVENUE,11210,1.5,$$,40.6330947,-73.9475211,Latin,oxtail patties beef charge crowded nice,17184214914
POLASH INDIAN CUISINE RESTAURANT,A,3 AVENUE,10035,4,$$,40.79965,-73.93855,Asian,indian chicken dish lunch cold amazing,12124100276
GREEN PAVILION RESTAURANT & SPORTS LOUNGE,A,18 AVENUE,11218,2.5,$$,40.630917,-73.976147,American,soup bar burger delivery ive breakfast,17184354722
LENWICH,A,W 9TH ST,10011,3,$$,40.734,-73.99906,American,sandwich lenwich salad wrap customer delicious,12123530300
NOT GUILTY DELICATESSEN,C,HYATT ST,10301,2,,40.6419046,-74.07742753,Other,store bad manager sandwich sit breakfast,17184485143
AUTHENTIC SZECHUAN,A,5TH AVE,11215,3.5,$$,40.67117532,-73.98489306,Chinese,dish authentic spicy love shrimp szechuan,17187882299
EL NUEVO SALINAS BAR & RESTAURANT,,NORTHERN BLVD,11368,2,,40.75738333,-73.86640951,European,clean decided eat ecuadorian bit coupon,17182051980
CAFFE PALERMO,,MULBERRY STREET,10013,3.5,$$,40.7189596,-73.9972725,European,cannoli italy coffee dessert ive cafe,12124314205
GO GO CURRY,A,E 53RD ST,10022,4,$,40.75732,-73.96791,Asian,curry katsu rice pork meal fried,16466785259
MOJITO'S,A,EAST  116 STREET,10029,3,$$,40.79761,-73.93879,Latin,drinks friendly tip happy hour check,12128288635
ARGO TEA CAFE,A,UNIVERSITY PLACE,10003,3.5,$$,40.73317,-73.99326,Coffee,tea drinks love hibiscus minutes argo,17185300520
ZUCKER'S BAGELS AND SMOKED FISH,A,CHAMBERS STREET,10007,3,$,40.715576,-74.009849,QuickMeal,bagel cheese coffee cream line sandwich,12126085844
DIG INN SEASONAL MARKET,A,LIBERTY ST,10280,3.5,$$,40.7126473,-74.01589759,American,dig inn lunch line options healthy,12127764051
3 SISTERS' & SHANTA'S RESTAURANT & BAKERY,Z,LIBERTY AVENUE,11417,4,$,40.68315,-73.83427,Latin,guyanese customer roti service xa price,17188453570
BUFFALO WILD WINGS,A,FLATBUSH AVENUE,11217,2.5,$$,40.68454395,-73.9775522,QuickMeal,wings table buffalo wait wild game,17189439453
GINGER VEGETARIAN,A,DITMAS AVE,11218,4,$$,40.6357,-73.97555,Asian,dish flavor noodles love rice soy,17186332077
SWEETGREEN WALL STREET,A,WALL ST,10005,3.5,$$,40.705586,-74.008382,QuickMeal,salad bowl line sweetgreen fresh lunch,12124879030
THE CANNIBAL NYC,C,EAST   29 STREET,10016,3.5,$$$,40.74380875,-73.98271942,American,friendly drinks beer table egg resto,12126855585
DIMES,A,CANAL ST,10002,3.5,$$,40.714973,-73.991539,American,bowl friendly menu rice dozen pretty,12129251300
FAMILY KITCHEN,A,SUTPHIN BLVD,11435,3,$,40.69314804,-73.79974864,Chinese,shrimp pork taste egg ive roll,17187393377
NUEVO TACOS AL SUADERO,A,ROOSEVELT AVE,11372,4,$,40.7487183,-73.8720627,Latin,tacos flavor authentic horchata people ive,17184290555
CARIDAD RESTAURANT,A,BROADWAY,10031,2.5,$$,40.8262,-73.95094,European,station service pay cashier customer im,12128624053
MARIO'S PIZZERIA,A,HOYT STREET,11217,2.5,$,40.68348659,-73.98996364,Pizza,pizza slice pretty chicken delivery minutes,17186243371
SONG KRAN THAI,A,8TH AVE,10001,3.5,$$,40.7474966,-73.9967069,Asian,thai fried pad rice lunch special,12122398792
CONGEE VILLAGE,A,ALLEN ST,10002,3.5,$$,40.7187,-73.99031,Chinese,rice congee fried porridge table chinese,12129411818
KITCHEN 79,A,79TH ST,11372,4.5,$$,40.747551,-73.8868866,Asian,thai pad dish curry noodles lunch,17188036227
BENNY'S CHAO KING RESTAURANT,C,COLUMBUS AVE,10025,2,,40.79829,-73.96378,Chinese,chinese chicken served broken customer egg,12128643790
HILL COUNTRY CHICKEN,Z,BROADWAY,10010,3.5,$,40.752327,-73.985565,QuickMeal,xa cheese bowl cookies count pret,16466881061
FIORE'S PIZZA,A,BLEECKER STREET,10012,4,$,40.72885,-74.00001,Pizza,pizza slice sauce cheese crust fiores,12129828663
WO KEE NOODLE,A,UNION TPKE,11366,3.5,$$,40.722908,-73.7997055,Chinese,dish spicy soup chicken sauce pork,17184873590
CHEUNG LEE,A,KINGSTON AVENUE,11213,4,$,40.676,-73.94172,Chinese,chinese sauce ive xa chicken mambo,17184939321
BLAKE BAKERY & TAKE OUT FOOD,,NOSTRAND AVENUE,11226,2.5,,40.64491272,-73.94865417,Latin,lady receipt xai bread counter hot,17186935133
GNOCCO,A,EAST   10 STREET,10009,3.5,$$,40.72713,-73.9802799,European,pizza italian pasta dish drinks truffle,12126771913
LWW BAKERY,A,18 AVENUE,11204,3.5,$,40.620235,-73.989403,QuickMeal,bun egg bakery coffee cup favorite,17182591681
J & R WEST INDIAN RESTAURANT,A,ROGERS AVENUE,11225,5,,40.66622925,-73.95388031,Latin,curry appeared chicken cooked dark delicious,17187354650
809 GRILL & BAR RESTAURANT,B,DYCKMAN STREET,10040,4,$$,40.86196,-73.9252,Latin,brunch drinks music party friendly sangria,12123043800
TOKYO YA,A,7TH AVE,11220,3.5,$,40.63888,-74.00941,Asian,ramen roll sushi pork taste special,17182889399
CHIMU,A,IRVING AVENUE,11237,4,$$,40.701583,-73.919384,Latin,steak chicken chimu love rice peruvian,17184430787
HING WONG RESTAURANT,Z,WESTCHESTER AVENUE,10455,5,,40.8173563,-73.90643042,Chinese,love arent called delivered disrespectful hard,17188424165
RAMEN-YA,Z,W 3RD ST,10012,3.5,$$,40.730972,-74.00071,Asian,ramen spicy broth noodles gyoza pork,12122548828
BASIL BRICK OVEN,A,ASTORIA BLVD,11102,4,$$,40.770946,-73.92001,European,pizza sauce brick oven service fresh,17182041205
PRET A MANGER,A,LEXINGTON AVENUE,10017,3.5,$,40.75225,-73.97495,American,sandwich pret service coffee employees cashier,12122923913
LA PEQUENA TASTE OF ITALY PIZZERIA,A,90 STREET,11372,3,$,40.74860167,-73.87658718,Pizza,pizza chicken delivery taste minutes phone,17185052600
HUA RONG,A,BROADWAY,11373,3,$,40.74084,-73.87921,Chinese,price menu soup delivery love noodles,17187601027
TAJ KABAB KING,A,GRAND STREET,11211,3.5,$$,40.710938,-73.9491,Asian,indian chicken love absolutely flavor ive,17187821722
PATZERIA'S PERFECT PIZZA,B,WEST   46 STREET,10036,4,$,40.75946539,-73.98678571,Pizza,pizza slice eat delicious ny pepperoni,12125757646
TRACKS RAW BAR & GRILL,A,PENN STATION 33RD STREET,10121,4,$$,40.75050866,-73.99350866,American,bar vodka station drinks train bartender,12122446350
CRISP & CRUNCH KENNEDY FRIED CHICKEN,A,FLATBUSH AVE,11226,3,$,40.63943,-73.95496,QuickMeal,chicken service customer late money called,17184848304
GEMINIS II RESTAURANT,,GRAHAM AVENUE,11206,3,$,40.70547,-73.94321,Latin,chicken people soup ive loud night,17183848108
EDISON BALLROOM,A,WEST   47 STREET,10036,4.5,$$$$,40.759674,-73.9857536,Asian,event ballroom edison xathe bar venue,12122017650
ESPINAL DELI & GROCERY,A,NOSTRAND AVE,11205,3.5,$,40.69025,-73.9517,European,im price rice taste fresh hot,17188571784
RICARDO STEAK HOUSE,A,2 AVENUE,10029,4,$$$,40.79345204,-73.94047568,Other,brunch music drinks friendly reservation steak,12122895895
ACASA LA MOLDOVA,A,CONEY ISLAND AVE,11230,4,$$,40.61293,-73.96274,European,delicious dish entree service birthday love,17189982892
MARIO'S RESTAURANT,A,ARTHUR AVENUE,10458,3.5,$$,40.8542,-73.88857,European,service italian sauce dinner mario arthur,17185841188
PARM RESTAURANT,,VESEY ST,10281,3,$$,40.71445101,-74.01610831,European,parm chicken sandwich bread fried mozzarella,12127764927
SIT & WONDER,A,WASHINGTON AVENUE,11238,4,$,40.67751363,-73.96373749,Coffee,coffee latte love nice seating friendly,17186220299
DELHI MASALA EXPRESS,,BROADWAY,10032,3.5,$$,40.83444855,-73.9449342,Asian,naan chicken neighborhood masala curry flavor,19174090544
GRAND SICHUAN HOUSE,A,5 AVENUE,11209,4,$$,40.62075,-74.02668,Chinese,spicy dish sichuan chicken fish noodles,17186808887
LA COLOMBIANITA BAKERY,B,CORONA AVE,11368,5,$,40.7425613,-73.8539581,QuickMeal,change eat eaten havent life pound,17183930063
CHOCK FULL O' NUTS,,AVENUE M,11230,4,$,40.6182807,-73.9587126,Coffee,coffee chock nuts im shop dunkin,17183396164
CANLON'S RESTAURANT,A,NORTH RAILROAD AVENUE,10306,4,$$,40.565179,-74.126835,European,friendly nice sauce taste canlons chicken,17186673013
O'NEILL'S RESTAURANT & BAR,A,FOREST AVE,10302,3.5,$$,40.6247252,-74.1423442,European,friendly irish bar cheese love brunch,17182734481
PERISTA RESTAURANT,,WEST KINGSBRIDGE ROAD,10468,3.5,,40.86849,-73.90122,American,burger delivery amazing arrived cheese package,17185484178
BRAZEN FOX KITCHEN AND BAR,A,3RD AVE,10003,3.5,$$,40.73281,-73.98784,American,cheese bar friendly menu oysters wings,12123531063
HEARTLAND BREWERY,A,8 AVENUE,10018,3,$$,40.75651242,-73.99048199,American,beer service bar fried burger drinks,16462141000
GREAT WALL,A,1 AVENUE,10029,4,$,40.795074,-73.935684,Chinese,chinese delicious harlem chicken delivery neighborhood,12124264888
ANGELA'S,,NOSTRAND AVE,11216,4,$$,40.68312615,-73.9502215,Latin,chicken jerk cheese angelas caribbean flavor,17185522297
NEW DRAGON,A,ROCKAWAY BOULEVARD,11420,2,,40.675166,-73.813473,Chinese,rice fried pork chicken bit delivery,17187382888
CHAMPS DINER,A,MESEROLE ST,11206,4,$$,40.70843974,-73.94078085,Other,vegan wait cheese diner meat delicious,17185992743
SET L.E.S.,,LUDLOW ST,10002,4,$$,40.71984954,-73.98853183,Asian,sliders fried drinks tacos set chicken,12129828225
CAFE HONG KONG,B,BAYARD ST,10013,3,$$,40.715206,-73.997528,Chinese,dish chicken family lunch fish rice,12126085359
PARIS BAGUETTE,B,8TH AVE,10018,4,$$,40.75498027,-73.99165995,Coffee,cake coffee paris baguette clean pastries,19172614534
TULCIMEX DELI RESTAURANT,A,BOSTON ROAD,10467,3,$,40.864624,-73.8638229,Other,mexican beans delivery tacos chicken rice,13478437997
ATLANTIC DINER,A,ATLANTIC AVENUE,11419,3,$$,40.69213696,-73.8339702,American,diner service fried called breakfast coffee,17188496673
FIX-U-PLATE,A,ROCKAWAY PKWY,11236,3,$$,40.64537,-73.90298,Latin,customer oxtail pieces service chicken dish,17189754544
FUJI JAPANESE RESTAURANT,,WEST   56 STREET,10019,3,$$,40.7656599,-73.98273,Asian,sushi roll udon lunch soup taste,12125869888
SONIC DRIVE-IN,A,PAGE AVE,10307,2.5,$,40.5207805,-74.2356413,American,sonic taste shake drive friendly horrible,17183176642
EL GRAN CANARIO II RESTAURANT,,JAMAICA AVENUE,11418,2.5,$$,40.697436,-73.836843,European,service rice chicken customer wasnt beans,17184411113
BLAKE & TODD,A,WEST   47 STREET,10036,3,$$,40.75702,-73.97916,Other,salad sandwich pasta manager price service,12128691929
JADE HOUSE,A,AMSTERDAM AVE,10032,3,$,40.8419304,-73.9388733,Chinese,chicken chinese jade fried house meat,12127950975
NEW HAN YANG SUSHI,A,NORTHERN BOULEVARD,11354,3,,40.76546686,-73.81362051,Asian,sushi convenient counter entrance grab grocery,17188866678
MARGON RESTAURANT,B,WEST   46 STREET,10036,4,$,40.75787,-73.98398,Latin,sandwich cuban lunch chicken beans margon,12123545013
IRISH PUNT,A,EXCHANGE PLACE,10005,3,$$,40.70583,-74.01013,European,bar drinks bartender irish customer waitress,12124227868
MUCHMORE'S,A,HAVEMEYER STREET,11211,4,$,40.71645236,-73.95294428,Coffee,bar live coffee music performance bartender,17185763222
D'ANGELO'S PIZZA,A,164 STREET,11432,3,,40.7182699,-73.80322,Pizza,pizza eat panini chicken flavor limited,17183808900
KORONET PIZZA,A,BROADWAY,10025,3.5,$,40.80442,-73.966056,Pizza,slice pizza jumbo eat koronets nyc,12122221566
CREATE,A,30 AVENUE,11103,3,$$,40.76505194,-73.91710268,American,create salad bowl delivery sandwich called,17182040333
POPEYES CHICKEN & BISCUITS,,LEXINGTON AVENUE,10010,4,$,40.74116,-73.98327,QuickMeal,chicken fried popeyes biscuits crispy friendly,12127257033
THE SABIENG THAI,A,1ST AVE,10003,4,$$,40.72554,-73.98722,Asian,thai curry delivery spicy chicken pad,12122532742
THREE STAR RESTAURANT,A,AVENUE U,11229,3,$$,40.59911,-73.95505,American,stars service lobster bread breakfast soup,17183364195
BIRYANI AND CHAT,,KISSENA BOULEVARD,11355,3.5,$,40.7534816,-73.8220844,Asian,chicken naan indian dish rice fresh,17183535577
& PIZZA,A,W 28TH ST,10001,4.5,$$,40.7452839,-73.9880992,Pizza,pizza top love cheese vegan customer,16469684634
SUMELA TO GO,,COURT ST,11201,4.5,$,40.68929,-73.99242,Other,tasty gyro hummus turkish delicious falafel,17188555050
ISLAND POT RESTAURANT,Z,ASHFORD ST,11207,2,$$,40.66268,-73.88043,Latin,rice oxtail service eat people taste,17182575554
CASA MEXICANA,A,AMSTERDAM AVE,10025,4,$$,40.7989892,-73.966955,Latin,mexican guacamole burrito service chicken friendly,12122223151
SUBWAY,A,NORTHERN BOULEVARD,11361,3.5,$,40.75782586,-73.77773296,QuickMeal,subway sandwich clean friendly fresh store,17184282177
TROPICAL SENSATION,,AMSTERDAM AVENUE,10025,3.5,$$,40.800816,-73.965018,Latin,drinks spot chicken meal service breakfast,12122220098
PARK ITALIAN GOURMET,A,WEST   45 STREET,10036,4,$,40.75620543,-73.98148298,European,sandwich italian chicken deli midtown parm,12123820580
MANNY'S,,PATCHEN AVE,11233,3.5,$$,40.68356323,-73.9264679,American,service credit coffee egg mannys card,17184839868
ANN & TONY'S RESTAURANT,A,ARTHUR AVENUE,10458,3,$$,40.855809,-73.887462,European,chicken bread italian amazing ann meal,17189331469
CHINA DRAGON,A,CLARENDON RD,11226,2.5,$,40.6426,-73.95692,Chinese,bag chinese attempt change delivered delivery,17188569015
JADE ISLAND RESTAURANT,,RICHMOND AVENUE,10314,3.5,$$,40.57600052,-74.16804753,Chinese,sauce island shrimp taste chicken jade,17187618080
VERNON GRILLE,A,VERNON BLVD,11101,4,$$,40.74356,-73.95412,European,chicken greek gyro service platter vernon,17184893142
ASIAN JEWELS SEAFOOD RESTAURANT,,39 AVENUE,11354,3.5,$$,40.759076,-73.8337556,Chinese,dim sum dish table wait cart,17183598600
WAT'S ON YOUR PLATE,A,WEST  145 STREET,10031,4,$,40.8258667,-73.94837952,Latin,chicken cheese jerk rice spot lot,12122344411
KURA,A,ST MARKS PLACE,10009,4.5,$$$$,40.726709,-73.9835794,Asian,omakase pieces sushi chef kura tuna,12122281010
3-J RESTAURANT AND PIZZA,B,PROSPECT AVE,10455,2.5,,40.81239389,-73.90472258,Latin,chicken pizza days eat grade seasoned,13473461381
MASTER WOK,A,KINGS PLAZA SHOPPING CT,11234,1.5,$$,40.60878,-73.92061,Chinese,chicken rice fried taste chinese broccoli,17182586943
GUACAMOLE TAQUIERA,Z,BROADWAY,10034,3.5,$$,40.86952,-73.91674,Latin,tacos friendly guacamole hour service drinks,16469644481
WHITESTONE BAGEL FACTORY,A,149 STREET,11357,4,$,40.776811,-73.817296,Other,bagel coffee cheese egg perfect bacon,17187627700
NEW HONG HUA,A,FLATLANDS AVE,11236,5,$,40.64721565,-73.89500617,Chinese,chicken chinese delivery easy fried hard,17182573008
DA NICO RESTAURANT,A,MULBERRY STREET,10013,3.5,$$,40.719685,-73.997062,European,italy stars italian sauce chicken service,12123431212
FLIGHT 151,C,8TH AVE,10011,3.5,$,40.7421099,-74.00118,American,bar xa beer bartender drinks nice,12122291868
KAJITSU,A,EAST   39 STREET,10016,4,$$$$,40.7276955,-73.9840698,Asian,meal dish experience kajitsu beautiful vegan,12122284873
HILL AND DALE,B,ALLEN STREET,10002,4,$$,40.719597,-73.990546,American,hour happy drinks brunch bar cheese,12124201115
THE BAYHOUSE,,BAYSIDE DRIVE,0,3,$$,40.56482552,-73.91172119,American,drinks menu friendly nice bayhouse eat,17183189660
BIG BANG BURGER,A,AMSTERDAM AVE,10024,3,$,40.7842022,-73.9777571,QuickMeal,burger fried kosher meat bag top,12123627386
BAGELS N DELI,A,CHURCH AVE,11218,2,$,40.6439801,-73.9762877,American,bagel called guys shop im mess,13474047122
FASCATI'S PIZZERIA,A,HENRY STREET,11201,4,$,40.6985,-73.99273,Pizza,pizza slice cheese fascatis brooklyn pie,17182371278
BONDURANTS,B,E 85TH ST,10028,4,$$,40.777292,-73.951854,American,bar beer cheese fried selection drinks,12122491509
CARVEL ICE CREAM,A,MYRTLE AVENUE,11385,3,$,40.7004858,-73.9006106,Drink&Sweets,cream ice girl allergy cake carvel,17183862258
MOTT HAVEN BAR & GRILL,A,3RD AVE,10454,4,$$,40.808318,-73.930394,American,drinks server service brunch fried wasnt,17186652001
57'S ALL AMERICAN GRILL,A,FRANCIS LEWIS BOULEVARD,11358,3,$$,40.76637,-73.78939,American,fried delivery burger called diner bad,17183533057
UNCLE JACKS STEAKHOUSE,,BELL BOULEVARD,11361,3.5,$$$$,40.76418,-73.7716,Other,steak jack service perfect potatoes steakhouse,17182291100
NICA TRATTORIA,A,EAST   84 STREET,10028,4,$$$,40.7756431,-73.950783,European,gnocchi italian table dish feel pasta,12124725040
DUCKS EATERY,A,EAST   12 STREET,10003,4,$$,40.7306252,-73.9846268,American,duck fried goat neck wings service,12124323825
GOLDEN KRUST CARIBBEAN BAKERY & GRILL,Z,WEBSTER AVE,10458,2.5,,40.86157,-73.89178,Latin,patties beef bit enter people slow,17182953672
MAISON KAYSER,A,COURT ST,11201,3.5,$$,40.6921231,-73.9911683,European,croissant paris pastries coffee delicious nice,17182549600
DAVID'S RESTAURANT,A,KINGS HIGHWAY,11223,4.5,$$,40.6047112,-73.9694855,Other,david soup fresh chicken meat price,17189988600
EL NUEVO SANDY RESTAURANT,A,2 AVENUE,10035,3,$,40.797256,-73.937934,Latin,de service chicken el la customer,12123488654
B & R SPICE WEST INDIAN FOOD,A,FARMERS BOULEVARD,11412,3,$$,40.70126789,-73.76608048,Latin,oxtail chicken customer beg bother bread,17182641000
THE CORNER PIZZA SHOP,A,JEROME AVE,10467,4,$,40.8807793,-73.8836823,Pizza,pizza school slice cheese dollars fast,17186531525
MANDARIN WOK II,A,EAST GUN HILL ROAD,10469,3.5,$$,40.87234989,-73.85115958,Chinese,lady chicken delivery phone friendly sauce,17184051915
MANHATTAN DINER,A,BROADWAY,10025,3.5,$$,40.79365,-73.9722,American,diner friendly manhattan potatoes service nice,12129320068
PICK A BAGEL,A,LEXINGTON AVE,10065,3,$,40.76357053,-73.96692842,QuickMeal,bagel cheese cream spread lox service,12128320051
FERRARA'S,,GRAND STREET,10013,3.5,$$,40.71909,-73.9971,QuickMeal,chocolate pastries cannoli italian bakery delicious,12122266150
BLACK BURGER/ POKE BOWL/ 5 BOROUGHS PIZZA,A,CANAL ST,10013,4,$,40.70972,-74.00854,American,chicken rice teriyaki lunch eat extra,12127758540
MUSCLE MAKER GRILL,,7TH AVE,10011,3,$$,40.739006,-73.9993775,American,wrap chicken grilled im bit burger,12128071000
THE GINGER MAN,A,EAST   36 STREET,10016,4,$$,40.749459,-73.982743,American,beer bar drinks seating service table,12125323740
ABUMI SUSHI,A,E 26TH ST,10010,3,$$,40.7405014,-73.98124695,Asian,sushi roll fresh delivery fish price,12125328783
DUN HUANG UPPER WEST SIDE,A,AMSTERDAM AVE,10027,3.5,$$,40.81106,-73.95818,Chinese,noodles dish rice spicy beef lanzhou,16464764549
HOUSEMAN RESTAURANT,A,GREENWICH ST,10013,4,$$$,40.72562883,-74.0092368,American,burger fried steak menu frites houseman,12126410654
EARL OF SANDWICH,A,AVENUE OF THE AMERICAS,10119,3.5,$,40.760473,-73.978881,American,sandwich earl chicken avocado called cookies,12122479246
COSZCAL DE ALLENDE RESTAURANT,A,3RD AVE,11220,4,$$,40.63617,-74.0262,Latin,mexican tacos nice recommend friendly love,17189213523
NORTH SHORE DINER,A,NORTHERN BLVD,11358,3,$$,40.7576451,-73.7837418,American,diner omelette parking service coming options,17182258000
CATANIA'S PIZZA CAFE,A,ARTHUR AVE,10458,4.5,$,40.853683,-73.889304,Pizza,pizza slice calzone catanias xathe arthur,17185843583
DON ALEX RESTAURANT,A,37 AVENUE,11372,3,$$,40.7498206,-73.8821289,Latin,chicken service pollo peruvian sauce bill,17184240233
RALPHS'S COFFEE SHOP & DINER,A,MOTT AVENUE,11691,3.5,$,40.60469,-73.7549,Latin,ralphs customer taste beans breakfast crab,17183279724
AMERICAN CHEEZ,A,7TH AVE,11215,4.5,$,40.6631983,-73.9846852,American,pizza bar drinks friendly bartender beer,13477254665
FAMOUS ANTHONY'S PIZZA,Z,WEST  167 STREET,10452,3.5,$,40.83752,-73.9274,Pizza,slice pizza cheese eat friendly huge,17189929298
ESPACE,A,W 42ND ST,10036,3,,40.76136398,-73.9992218,American,event space macallan espace scotch party,12129677003
WANISA KITCHEN,Z,SMITH ST,11201,4,$$,40.687,-73.99042,Asian,thai pork pad delicious flavor nice,17185223027
EL SAZON DE OLGA RESTAURANT,A,CASTLE HILL AVE,10472,4.5,,40.828172,-73.850533,Latin,authentic chicken ive mangu spanish american,13476570955
HUNAN CHEN'S KITCHEN,A,COLUMBUS AVE,10025,3,$,40.80133,-73.96113,Chinese,chicken chinese delivery fried rice broccoli,12122221118
LEGENDS NYC,,WEST   33 STREET,10001,3.5,$$,40.74799731,-73.98571484,American,bar game drinks service sports event,12129677792
ESTRELLITA POBLANA,A,WESTCHESTER SQUARE,10461,4,$$,40.84221,-73.84381,Latin,mexican tacos estrellita service chicken delicious,17182398290
BUDEPEST CAFE,A,2 AVENUE,10028,3.5,$$,40.77715,-73.95264,European,chicken dessert pastries hungarian strudel bakery,12123271105
CAFE ONE,A,AMSTERDAM AVENUE,10031,4,$,40.822166,-73.949569,American,cafe coffee sandwich friendly im price,12126900060
PANCHO'S ANTOJITOS MEXICANOS,Z,AMSTERDAM AVENUE,10025,4.5,$,40.8015,-73.96534,American,burrito breakfast mexican rice beans sauce,12123165400
NELLY'S CAFE,A,37 AVENUE,11101,4.5,,40.75968,-73.9414,European,gem super authentic awesome beans beat,17187292016
TEPACHE,A,HALSEY ST,11216,3.5,$$,40.683368,-73.938289,Latin,tacos burrito fish chicken delivery mexican,17184847701
PIL PIL,,E 78TH ST,10075,4,$$,40.7728412,-73.9558687,Latin,tapas pil region brunch dish sangria,12129883788
DAVIDOVICH BAKERY,A,ESSEX STREET,10002,3.5,$,40.71942304,-73.9873862,QuickMeal,bagel cheese cream market bakery les,16469186763
M&J HONG KONG STYLE,A,KISSENA BOULEVARD,11355,3.5,$$,40.7397295,-73.8151429,Chinese,rice roasted pork meat noodles pot,17189398286
PIG HEAVEN,A,3RD AVE,10028,4,$$,40.77544,-73.95686,Chinese,ribs pork chinese dish friendly reservation,12127444333
CHEZ MA TANTE,B,CALYER STREET,11222,4.5,$$,40.72689661,-73.95742904,American,pancakes brunch perfect dish amazing reservation,17183893606
SELENA ROSA MEXICANA,Z,2ND AVE,10128,3.5,$$,40.779514,-73.950149,Other,drinks happy margarita hour fajitas ive,12127224242
PITA PAN,,7 AVENUE,11215,4,$,40.67194,-73.9771899,Other,lamb chicken fresh delicious pita falafel,17188323876
CICCIO CAFE,A,6TH AVE,10013,4,$$,40.726306,-74.003427,European,italian ciccio pasta friendly love fresh,16464769498
LOS BUCAROS,B,QUEENS BLVD,11435,3,$$,40.707332,-73.817009,European,portions rice people delivery eat beans,17182061499
YOLANDA RESTAURANT,B,JAMAICA AVE,11207,2.5,,40.6800804,-73.8929291,European,chimmy flavor pig price taste beans,17182771737
ORIENTAL CHINESE KITCHEN,A,NEPTUNE AVENUE,11235,2.5,$$,40.58004,-73.96717,Chinese,chicken fast noodles rice times address,17188918563
ARIEL'S CAFE,A,QUEENS BOULEVARD,11374,3,$,40.72969437,-73.86057281,American,coffee donuts burger told breakfast dunkin,17182751700
VCHRIS AFRICAN CUISINE,,UTICA AVENUE,11203,3.5,$$,40.659626,-73.931625,Other,nigerian price menu taste cash egusi,17186040964
NIO'S WEST INDIAN RESTAURANT & BAKERY,A,CHURCH AVENUE,11226,3.5,$,40.65057,-73.95221,Latin,roti double eat chicken curry im,17182879848
UNION BAR & KITCHEN,A,SPRING ST,10013,4,$$,40.72572,-74.00798,American,brunch friendly service bottomless drinks pretty,16467910005
MEE SUM CAFE,A,PELL STREET,10013,3.5,$,40.715045,-73.998291,Coffee,rice chinatown pork xai served sum,12123495260
PRESSED JUICERY,A,MAIDEN LN,10038,4.5,$$,40.7069752,-74.00731288,Drink&Sweets,juice freezing drinks flavor ice taste,16469984981
CORK & KALE AT EVEN HOTEL,B,NEVINS ST,11217,3.5,$$,40.687842,-73.98187,American,hotel stay clean nice bed floor,17185523800
EVERGREEN ON 38ST,C,E 38TH ST,10016,3.5,$$,40.75041,-73.98199,Chinese,dish soup dumplings dim sum lunch,12124481199
ZANNY'S CAFE,A,COLUMBUS AVENUE,10025,4,$,40.800315,-73.961677,American,NA,12123166849
PYE BOAT NOODLE,A,BROADWAY,11106,4.5,$$,40.76043,-73.92152,Asian,NA,17186852329
PROVINI CAFE,B,8 AVENUE,11215,3.5,$$,40.66335678,-73.98149872,European,NA,17183692154
LAS LUNITAS,A,STANHOPE ST,11237,3.5,$$,40.69980003,-73.92138809,Latin,NA,17184839037
BOI NOODLE Restaurant,A,WEST   40 STREET,10018,2.5,$$,40.75522,-73.98957,Asian,NA,12125750088
EL PUERTO DE ACAPULCO,A,37 AVENUE,11372,4.5,$$,40.74247,-73.895966,Latin,NA,17182055554
TWO BOOTS PIZZA,A,BROADWAY,10025,3,$,40.794354,-73.972445,Pizza,NA,12122802668
REGINA'S CAFE & PIZZERIA,,UNION TURNPIKE,11366,3,$,40.726045,-73.791548,Pizza,NA,17185915727
EAST RIVER,A,SOUTH    6 STREET,11249,3.5,$,40.71094131,-73.96464539,American,NA,17183020511
UNIQUE BAKERY,A,FORT HAMILTON PKWY,11219,4,,40.6317499,-74.00725,Chinese,NA,17186809000
ELLA KITCHEN AND BAR,Z,COLUMBUS AVE,10023,4,$$,40.77704965,-73.97889139,European,NA,12125799929
RESTAURANT LA SAVANE,A,W 116TH ST,10026,4.5,$$,40.80424881,-73.954216,Other,NA,16464904644
BOCCONCINI,A,NORTHERN BLVD,11362,4,$,40.7717275,-73.7347736,Pizza,NA,17184231192
Ocean Palace and Bar,B,ARTHUR KILL RD,10309,4,$$,40.55626,-74.21223,Chinese,NA,17183562286
BURGER KING,A,NORTHERN BOULEVARD,11361,3.5,$,40.76157,-73.75924,QuickMeal,NA,17182251695
401 LUCKY STAR RESTAURANT,A,MOTHER GASTON BLVD,11212,2.5,$,40.66932,-73.90642,Chinese,NA,17184852633
CRISPY CHICKEN RESTAURANT,A,JAMAICA AVE,11428,4,$,40.71726,-73.73868,Latin,NA,17187495899
STOP INN RESTAURANT & CAFE,A,ROOSEVELT AVENUE,11377,3.5,$$,40.74546875,-73.90366137,American,NA,17187790290
KAVASUTRA,A,E 10TH ST,10009,3.5,$$,40.72856,-73.98334,Drink&Sweets,NA,16466494214
VALBELLA N.Y.,A,WEST   13 STREET,10014,4,$$$$,40.7409181,-74.0068885,European,NA,12126457777
VINNY'S OF CARROLL GARDEN RESTAURANT & LUNCHEONETT,A,SMITH STREET,11231,4,$$,40.682103,-73.993438,European,NA,17188755600
BAGATELLE,,LITTLE WEST 12 STREET,10014,3.5,$$$,40.739654,-74.005915,European,NA,12124882110
RAY'S CAFE AND RESTAURANT,A,CITY ISLAND AVE,10464,3,$,40.843979,-73.785599,European,NA,13473469119
T&T BBQ HUT,A,LIBERTY AVE,11419,3.5,$$,40.68752,-73.82144,Latin,NA,17188482210
ZEN VEGETARIAN HOUSE,A,FLATBUSH AVE,11226,4,$$,40.65396,-73.95937,Other,NA,17182822255
SMITHFIELD HALL,A,W 25TH ST,10001,4,$$,40.74475326,-73.99349399,American,NA,12129299677
MCG GRAND CAFE,A,NOSTRAND AVE,11225,4.5,$$,40.65808,-73.95018,Latin,NA,17187740555
VILLA BARONE,A,WESTCHESTER AVENUE,10461,2.5,$$,40.85326,-73.82747,European,NA,17188280560
ANGELO'S PIZZA,A,CORTELYOU RD,11226,3,$,40.6441144,-73.9583106,Pizza,NA,17182843054
ONE AND ONE,A,1 AVENUE,10009,3,$$,40.7233026,-73.9881999,European,NA,12125989126
SOMTUM DER,A,AVENUE A,10009,4,$$,40.7252152,-73.98427417,Asian,NA,12122608570
JUSTINOS PIZZERIA,A,GUYON AVENUE,10306,3.5,$,40.5649,-74.12772,Pizza,NA,17186682020
NEW YORK KOSHARY,A,86TH ST,11209,4.5,$,40.62104863,-74.02584974,Other,NA,17182387800
ZARO'S BREAD BASKET,A,7 AVENUE,10018,3,$,40.75298717,-73.9888268,QuickMeal,NA,12125757031
MICHELANGELO'S PIZZA,B,POST AVE,10310,4.5,$,40.63087,-74.12967,Pizza,NA,17182737541
FIVE GUYS FAMOUS BURGERS AND FRIES,A,CENTRAL TERMINAL BLD 1,0,3.5,$,40.7743438,-73.8740247,QuickMeal,NA,17185050565
PALM RESTAURANT,,CHAMBERS STREET,10007,3.5,$$$,40.71653631,-74.01279106,Other,NA,16463956393
ANTHONY'S PLACE,,OCEAN AVE,11229,4,$$,40.5928522,-73.9505447,Pizza,NA,17187438099
REBEN LUNCHEONETTE,A,HAVEMEYER STREET,11211,4.5,$,40.70903353,-73.95910598,American,NA,17183887696
WOODROWS,A,MURRAY STREET,10007,4,$$,40.7141113,-74.009201,American,NA,12126760300
THE WING BAR,B,SMITH STREET,11231,4,$$,40.68253,-73.99318,American,NA,17182372728
CASH ONLY BBQ,A,DRIGGS AVE,11211,4.5,,40.7118,-73.96128,Other,NA,19174552409
OASIS DINER/RESTAURANT,A,FLATBUSH AVENUE,11234,4,$$,40.61786,-73.93211,American,NA,17182583461
RADISSON JFK - CONNECTIONS,Z,140 STREET,11436,2,$$,40.6673199,-73.79849,American,NA,17183222300
MCDONALD'S,A,JAMAICA AVENUE,11435,2,$,40.70228917,-73.81428681,QuickMeal,NA,17185588665
MALACHY'S,A,WEST   72 STREET,10023,3,$$,40.7778,-73.97896,European,NA,12128744268
NUMERO 28,,1 AVENUE,10021,3.5,$$,40.76936,-73.95508,European,NA,12127728200
ESMERALDA'S RESTAURANT,A,MYRTLE AVENUE,11237,5,,40.69923782,-73.91558075,European,NA,17183811721
BAKERY ON 3RD CAFE,B,3RD AVE,10029,3.5,$,40.79036719,-73.94530671,QuickMeal,NA,12125340008
GARI,A,COLUMBUS AVENUE,10024,4,$$$$,40.78112,-73.97632,Asian,NA,12123624816
BA SAK CHICKEN,Z,NORTHERN BLVD,11358,3.5,$$,40.75802784,-73.79547309,Asian,NA,17183538484
PEPPINOS PIZZA,A,WHITE PLAINS ROAD,10470,3,$,40.90368988,-73.85019297,Pizza,NA,17189947543
MI LINDO SAN MIGUELITO,A,W 231ST ST,10463,4,$$,40.88006,-73.90675,Latin,NA,13479454330
TROPICAL FANTASY BAR AND LOUNGE,,173 STREET,11433,3.5,$$,40.70761,-73.786838,Latin,NA,17186588200
NARROWS COFFEE SHOP,A,4 AVENUE,11209,4,$,40.6125908,-74.0334473,American,NA,17188339281
PAMPAS ARGENTINAS,,METROPOLITAN AVENUE,11375,3.5,$$$,40.7102099,-73.84804,Latin,NA,17182689606
GROUNDED,A,JANE STREET,10014,4,$,40.73806,-74.0034,Coffee,NA,12126470943
MCDONALD'S,A,LIBERTY AVENUE,11419,2,$,40.686474,-73.823948,QuickMeal,NA,17188438777
NATURAL JUICE RESTAURANT,A,5TH AVE,11220,2.5,,40.64095197,-74.01487892,European,NA,16468075042
HUDSON VIEW RESTAURANT,,WEST  181 STREET,10033,3,$$,40.8506554,-73.9378953,American,NA,12127810303
O'HARA'S,A,CEDAR STREET,10006,4,$$,40.70934736,-74.01225574,American,NA,12122673032
DEATH & CO,A,EAST    6 STREET,10009,4,$$$,40.72589,-73.9847,American,NA,12123880882
CHOP'T,A,EAST   17 STREET,10003,3.5,$$,40.7371677,-73.990843,QuickMeal,NA,16463365523
GRAMERCY BAGEL,A,3 AVENUE,10010,3,$,40.7371889,-73.9845285,QuickMeal,NA,12123880080
CROWN FRIED CHICKEN,A,PITKIN AVE,11207,2.5,,40.672187,-73.892204,QuickMeal,NA,17182409333
CROXLEYS THE ABBEY,A,GRAND ST,11249,3.5,$$,40.716096,-73.964839,American,NA,17183874290
SANGARITA'S,,BELL BLVD,11361,4,$$,40.76413719,-73.77157498,Latin,NA,17184282727
DHAKA RESTAURANT,A,HILLSIDE AVE,11432,4,$,40.7102866,-73.793664,Asian,NA,17182629774
BOSTON PIZZA,A,BROADWAY,11103,3.5,$,40.759575,-73.920526,Pizza,NA,17185456001
SAL'S PIZZA / MAMMA MARIA RESTAURANT,A,COURT STREET,11231,3,$,40.68357,-73.99504,Pizza,NA,17188526890
NEW WIN SHING,,BROADWAY,11103,2.5,$$,40.75567,-73.91249,Chinese,NA,17189569688
SUSHI DAIZEN,,VERNON BLVD,11101,4.5,$$$$,40.74445,-73.9538199,Asian,NA,17187291297
MR. KAM RESTAURANT,A,VETERANS AVENUE,11234,3,$,40.61947833,-73.91580397,Chinese,NA,17185317100
PASTICCERIA BRUNO OF GREENWICH VILLAGE,A,HYLAN BOULEVARD,10305,3.5,$$,40.588166,-74.090202,QuickMeal,NA,17189875859
KABAB CAFE,A,STEINWAY STREET,11103,4,$$$,40.7678122,-73.91199701,Other,NA,17187289858
CIAO FOR NOW,A,EAST   12 STREET,10009,4,$$,40.7288039,-73.980079,Coffee,NA,12126772616
STROKOS GOURMET DELI,A,AMSTERDAM AVE,10025,3,$,40.8053548,-73.9621317,Other,NA,12126662121
MARGARITA SALOON,A,8 AVENUE,10036,3.5,$$,40.75910187,-73.9888382,Latin,NA,12125822012
MEADOWSWEET,A,BROADWAY,11211,4,$$$,40.7103995,-73.9632384,American,NA,17183840673
THE ORIGINAL EMILIO'S PIZZA,A,EAST TREMONT AVENUE,10465,3.5,$,40.8243484,-73.81987,Pizza,NA,17184090929
CHINA KING 1,A,PITKIN AVE,11208,2.5,$,40.67536,-73.87304,Chinese,NA,17182777113
KOGANE,B,HENRY ST,11201,4,$$,40.698608,-73.992675,Asian,NA,17188752828
CHINA XIANG,A,W 42ND ST,10036,4,$$,40.75829021,-73.9925114,Asian,NA,12129676088
VIP GRILL,A,13TH AVE,11218,2.5,$$,40.64132,-73.98536,Other,NA,17188473000
VINCENT AND ANDREA PIZZERIA,A,JAMAICA AVE,11418,3.5,$$,40.69835,-73.83522,Pizza,NA,17188467070
SALVO'S,A,YORK AVENUE,10075,4,$$,40.77085114,-73.95092773,Pizza,NA,16465901925
JG MELON RESTAURANT,,3 AVENUE,10021,3.5,$$,40.77105,-73.95931,American,NA,12127440585
FIVE GUYS FAMOUS BURGERS AND FRIES,A,WEST   55 STREET,10019,3.5,$,40.76253,-73.97671,QuickMeal,NA,12124599600
CHECKERS,A,CHAMBERS ST,10007,2.5,$,40.7145,-74.00677,American,NA,12125878888
CASA VERDE,A,RICHMOND ROAD,10306,3.5,$$,40.57689285,-74.16688538,Pizza,NA,17189838344
MCDONALD'S,A,BROADWAY,11206,2,$,40.70136295,-73.94348949,American,NA,17185992870
KUNG FU LITTLE STEAMED BUNS RAMEN,A,E 55TH ST,10022,3,$$,40.75925147,-73.96942947,Chinese,NA,12128048556
MOTHER'S,A,GRAHAM AVENUE,11211,3.5,$$,40.71488,-73.94471,American,NA,17183847778
JAHN'S RESTAURANT,A,37 AVENUE,11372,3.5,$$,40.74941,-73.88497,American,NA,17186510700
HOLY SCHNITZEL,B,AVENUE U,11223,4,$$,40.59842589,-73.96234509,Other,NA,17186274659
BURGER URWAY,A,LINCOLN PL,11238,3,$,40.672325,-73.960678,QuickMeal,NA,17186187985
NO. 1 HALAL KITCHEN,A,HILLSIDE AVE,11432,3,,40.71454,-73.77458,Chinese,NA,17182178888
CAFE Y ALGO MAS,A,ASTORIA BOULEVARD,11369,4.5,$$,40.76249,-73.87085,QuickMeal,NA,17182050450
EAST DIM SUM,A,MAIN STREET,11355,3,$$,40.74300505,-73.82559367,Chinese,NA,17189611388
PIZZA HUT,A,WESTCHESTER AVENUE,10462,1.5,$$,40.8336426,-73.8569853,Pizza,NA,17188222909
LIMITLESS FITNESS,A,CROSSBAY BOULEVARD,11414,3,,40.66222,-73.84003,Drink&Sweets,NA,17188454653
NANATORI JAPANESE RESTAURANT,C,MONTAGUE STREET,11201,3.5,$$,40.694149,-73.99282,Asian,NA,17185225555
ELI'S TABLE,B,3 AVENUE,10028,3.5,$$,40.7750198,-73.9565473,American,NA,12127179798
CROSSBAY DINER,A,CROSSBAY BOULEVARD,11414,3.5,$$,40.65660385,-73.83883717,American,burger diner service fresh salad waitress,17188489401
DAGAN GRILL,A,STRICKLAND AVE,11234,5,,40.6134624,-73.91211301,American,burger allergy bf customer delicious enjoyed,17184444100
LOON CHUAN RESTAURANT,A,PAGE AVENUE,10309,3,$$,40.522215,-74.234599,Chinese,chicken chinese quality rice sauce meat,17189679819
BREAD MARKET CAFE,A,6 AVENUE,10119,3,$$,40.7608415,-73.9795183,American,salad sandwich bread lunch market im,12129575677
3 ALARM DELI,,28TH AVE,11103,3,$,40.76352,-73.90899,Other,sandwich delivery minutes deli cold hot,17187214155
SUBWAY,B,GRAND STREET,10002,3,$$,40.71711,-73.99002,QuickMeal,sandwich im subway lady service customer,12127772372
BREAD & BUTTER,B,5TH AVE,10016,3,$,40.7466099,-73.98568,American,buffet fresh eat lunch pancakes price,12124480444
GOLDEN Z RESTAURANT,A,AVENUE U,11229,4,$,40.598533,-73.956928,Chinese,chinese rice dish roasted taste cheap,17183824328
EL MEXICANO RESTAURANTE & CAFE,A,EAST   15 STREET,11229,4,$,40.59858,-73.95653,Other,tacos mexican chicken delicious chorizo menu,17186762700
NEW SUNNY EAST 88 RESTAURANT,A,1 AVENUE,10128,3.5,$,40.777902,-73.94825,Chinese,rice delivery chicken chinese fried east,12128769332
TAJADAS BAKERY & RESTAURANT,A,JAMAICA AVENUE,11421,3.5,$,40.6946417,-73.8485057,Latin,empanadas hour called sauce wait breakfast,17188460101
PIM POLLO,A,JUNCTION BOULEVARD,11369,3.5,$$,40.75745773,-73.87390137,Latin,rice fried delivery beans chicken address,17182055508
PARTY WELL RESTAURANT & ORIENTAL BAKERY,B,41ST AVE,11355,4,$$,40.762161,-73.8144949,Asian,bbq meat served beef korean parking,17188860800
BODHI FITNESS CENTER,A,PRINCE STREET,11354,4,,40.76372,-73.83292,Drink&Sweets,gym equipment class shower membership parking,17183211100
PRINCESA BAKERY & RESTAURANT,A,GRAHAM AVE,11206,3.5,$,40.704389,-73.942447,European,cake coffee breakfast people sandwich bakery,17187823822
SUBWAY,,HARWAY AVENUE,11214,1,$,40.58762,-73.98379,QuickMeal,bread subway child enter experience machine,17184494992
AZUSA OF JAPAN,C,EAST   44 STREET,10017,3,$$,40.7546,-73.97926,Asian,lunch special japanese friendly udon roll,12126810001
KORI TRIBECA,B,CHURCH ST,10013,4,$$,40.71792389,-74.00554012,Asian,korean dish bibimbap delicious pancakes rice,12123340908
V-BREAD CAFE NY,C,ALLEN ST,10002,4,$,40.71489153,-73.99299804,Asian,sandwich rice pork mi vietnamese baby,12122191818
CROWN PALACE,B,FOREST AVE,10302,3,$$,40.626714,-74.131783,Chinese,shrimp taste chinese sauce chicken eat,17188767888
RIVIERA,A,STEINWAY STREET,11101,2.5,$$$,40.7553915,-73.9220986,American,club girl money check night people,17189376664
MISSION CEVICHE,A,W 14TH ST,10014,4.5,$$,40.74108,-74.004628,Other,ceviche market bowl potatoes seafood sweet,13478216359
TROPICAL II RESTAURANT,A,GREENPOINT AVENUE,11101,2.5,$$,40.73770888,-73.92992327,Latin,service steak eat ive meal nice,17183922734
CHARLIES SPORTS BAR,A,60TH ST. - STORE,0,4.5,$,40.741873,-73.904721,Drink&Sweets,bar drinks nice bill love bartender,17184781903
AMERICAN HERO & SUB'S,A,44 DRIVE,11101,3,$,40.747318,-73.944717,QuickMeal,sandwich price friendly im hero hot,17183616595
BOSTON MARKET,A,E 149TH ST,10455,3.5,$$,40.8155408,-73.9160791,American,boston market customer love chicken service,17187640266
WILLBURG CAFE,A,GRAND STREET,11211,3,$$,40.711514,-73.947124,American,toast burger delicious service friendly ive,17189630219
CHIMI MUNDO AND RESTAURANT,A,ATLANTIC AVE,11421,3,$,40.68957,-73.844861,Latin,chimi service hour wait chicken delicious,17188468636
MOCHA CAFE,A,E 121ST STREET,10035,3.5,,40.80128547,-73.93735747,Coffee,coffee options busy ice neighborhood cafe,12129962600
WHITE CASTLE,A,EAST FORDHAM ROAD,10458,3,$,40.8589,-73.88646,QuickMeal,castle white burger im service customer,17185845310
SKILLMAN'S  FAMOUS PIZZA & COFFEE SHOP,A,SKILLMAN AVENUE,11104,3.5,$,40.746294,-73.917768,American,pizza coffee breakfast im service diner,17187841821
KHAO SARN,A,BEDFORD AVE,11249,3.5,$$,40.7129,-73.96261,Asian,thai lunch noodles dish chicken pad,17189631238
MISTURA PERUANA RESTAURANT,A,JAMAICA AVENUE,11421,3.5,$$,40.69265,-73.86018,European,peruvian eat fried chicken sauce dish,17184413237
H & H MIDTOWN BAGELS EAST,Z,2 AVENUE,10028,4,$,40.77444,-73.95447,QuickMeal,bagel cheese lox cream egg delicious,12127347441
LILI'S 57,B,WEST   57 STREET,10019,3.5,$$,40.76554,-73.98046,Chinese,gluten chicken free friendly sauce chinese,12125865333
BAMBOO YA,A,QUEENS BLVD,11374,3.5,$$,40.729853,-73.860697,Asian,roll sushi salmon fresh nice service,17188061228
CARIDAD EXPRESS RESTAURANT,A,EAST  204 STREET,10467,2,,40.87222,-73.87765,Latin,flavor spanish city orange salt stop,17186538331
LUCKY ZHANG'S FAMILY,B,8 AVENUE,11220,3.5,$$,40.6374512,-74.007843,Chinese,dumplings soup fish dish delicious noodles,17184393366
HECTOR'S CAFE & DINER,A,LITTLE WEST   12 STREET,10014,3,$$,40.74028932,-74.0080402,American,diner sandwich friendly decent meat eat,12122067592
ROUTE 66 CAFE,A,9 AVENUE,10019,3,$$,40.76695,-73.9862,American,burger service brunch friendly delivery eat,12129777600
CHIPOTLE MEXICAN GRILL,A,MYRTLE AVE,11205,2.5,$$,40.69292494,-73.97015098,Latin,chipotle rice burrito line beans bit,17188553517
TRONO DE MEXICO,A,69 STREET,11377,2,$$$,40.7468948,-73.8962555,Latin,dangerous drinks american bartender central crowded,17184249181
LEGENDS BAR & GRILL,A,35 AVENUE,11372,4,$$,40.750448,-73.89472,American,bar brisket legends pork bbq fried,17188999553
PIZZA HUT/KFC,A,FRESH POND ROAD,11379,3,$,40.7137,-73.9011,QuickMeal,chicken fried love kfc service eat,17186288700
TASTY GARDEN,B,20TH AVE,11204,4,,40.6167001,-73.98547009,Chinese,authentic cheaper choice dish lot lunch,17182560023
SUBWAY,A,7 AVENUE,10011,1,,40.73766,-73.99994,QuickMeal,ahead care cheap cheese customer listen,12126912929
DU JOUR BAKERY,A,5 AVENUE,11215,4.5,$$,40.671211,-73.984215,QuickMeal,cake delicious brunch customer nice pastries,13472278953
WOK WOK RESTAURANT,A,EAST  208 STREET,10467,3,$,40.88104,-73.88291,Chinese,wok chicken chinese hot sauce called,17188822434
DEACON BRODIE'S,A,WEST 46 STREET,10036,4,$$,40.7606896,-73.9903717,European,bar bartender nice drinks local selection,12122621452
POKE FRESH SUSHI,A,YORK AVE,10028,3,$$$,40.77431,-73.94808,Asian,poke bowl delivery fresh price rice,12125355798
PABELLON,,WESTCHESTER AVE,10472,3.5,$$,40.8286545,-73.8799436,European,fried rice shrimp wait love review,17183281252
KAI SUSHI ASIAN FUSION,A,WILLIAMSBRIDGE RD,10461,4,$$,40.84362,-73.84565,Asian,roll sushi fresh price service shrimp,17188637900
THE MARSHAL,A,10TH AVE,10036,4,$$,40.76122,-73.99396,American,cheese meatloaf table bacon egg biscuits,12125826300
BO'S KITCHEN & BAR ROOM,A,WEST 24 STREET,10010,4,$$,40.74262599,-73.99028636,American,drinks friendly bar fried night bos,12122342373
SUBWAY,A,BROADWAY,10007,2,$$,40.71289,-74.00758,QuickMeal,sandwich subway dude bread change horrible,12123462533
MCDONALD'S,A,BEACH CHANNEL DR,11693,1.5,$,40.58897924,-73.81689838,American,drive service customer mcdonalds minutes rude,17184744949
CHIPOTLE MEXICAN GRILL,A,METROTECH CTR,11201,2,$$,40.693598,-73.986388,Latin,chipotle chicken burrito wait bowl portions,19172464060
Underwest Donuts,A,PENN PLZ,10121,4,$,40.764472,-73.998073,QuickMeal,donuts xa flavor car wash inside,12123172359
ORCHID DYNASTY RESTAURANT,Z,NEW UTRECHT AVE,11214,3,$$,40.614067,-74.000709,Chinese,meat roasted lb chicken bit bone,17188372017
MIKE DADDY'S PIZZA,A,7TH AVENUE,11215,3.5,$,40.6629189,-73.9847414,Pizza,pizza slice mike daddy cheese love,17187689700
ASIAN TERRACE RESTAURANT,,26 AVENUE,11360,3.5,$$,40.778061,-73.7782984,Asian,roll sushi menu service price lunch,17182295888
THERAPY,A,WEST   52 STREET,10019,3.5,$$,40.76404,-73.9869499,American,therapy bar bartender friendly upstairs night,12123971700
"DUNKIN' DONUTS, BASKIN ROBBINS",A,WESTCHESTER AVENUE,10462,2,$,40.83387,-73.85175,Coffee,coffee dunkin donuts lady bad morning,17189181235
NEW GREAT DRAGON,A,LINDEN BLVD,11411,2,$$,40.69378086,-73.73616278,Chinese,chinese taste alternative bad bbq bit,17187230831
SPARTAN SOUVLAKI,,8 AVENUE,11220,4,$$,40.6306158,-74.0148414,European,gyro greek salad meat fried pie,17187485838
ZYARA RESTAURANT,A,STEINWAY ST,11103,3.5,,40.76648,-73.91251,European,bread fresh amazing hummus laffa shawarma,17187777753
NEW LEAF,A,MARGARET CORBIN DR,10040,3.5,$$$,40.86344238,-73.93242395,American,service parking salad wait nice beautiful,12125685323
KIKU ASIAN BISTRO,A,LINCOLN PL,11217,3.5,$$,40.67754,-73.97956,Asian,sushi roll service fresh fish friendly,17186383366
CENTER BAR,A,COLUMBUS CIRCLE,10019,3.5,$$$,40.76828923,-73.98242712,American,drinks bar service view wine center,12128239482
NEW SUNNY GARDEN RESTAURANT,A,JAMAICA AVENUE,11432,4,,40.707517,-73.78949,Chinese,chinese fresh coming hot ive nice,17185237803
VIVI BUBBLE TEA,Z,8TH AVE,11220,3.5,$,40.63534268,-74.00942777,Coffee,tea drinks bubble milk latte sugar,17184390288
ACQUISTA TRATTORIA,A,UNION TURNPIKE,11366,4,$$,40.7265391,-73.7898816,European,service italian chicken excellent dish pasta,17189691411
NEW SAN FRANCISO RESTAURANT,B,AUDUBON AVE,10032,4,$,40.84056,-73.93796,Latin,chicken beans price dominican rice delicious,12125684040
EL SABOR CARIBENO RESTAURANT,A,BROADWAY,11221,4,$,40.69479,-73.93162,European,love service speak delivery english pernil,17186020006
GOLD MINE CAFE,,BROADWAY,10463,3,$,40.8789689,-73.9044863,European,wrap called diner price breakfast coffee,17185490622
LITTLE ITALY PIZZA,A,PARK PLACE,10007,3.5,$,40.713,-74.00834,Pizza,pizza slice lunch cheese service fresh,12122277077
GOLDEN KRUST CARIBBEAN BAKERY & GRILL,A,METROPOLITAN AVENUE,10462,2.5,$,40.83621597,-73.86079407,Latin,customer patties rude busy chicken golden,17187929322
HANAMIZUKI CAFE,A,W 29TH ST,10001,4,$$,40.7474471,-73.9915989,Asian,rice balls soup cafe lunch miso,12126955533
MUDVILLE SALOON,A,CHAMBERS STREET,10007,3.5,$$,40.71524,-74.00889,American,wings burger mudville nice bar ive,12129649464
CHEZ MATY ET SOKHNA,B,ADAM CLAYTON POWELL JR BLVD,10027,4,$$,40.81357518,-73.94467434,Other,lamb service rice fish dibi flavor,12123685005
BASTA PASTA RESTAURANT,A,WEST 17 STREET,10011,3.5,$$,40.73881,-73.9940699,European,pasta cheese dish wheel prosciutto spaghetti,12123660888
COPPER KETTLE,A,SKILLMAN AVENUE,11377,4,$$,40.746085,-73.913845,American,xa drinks neighborhood fried service burger,17183357596
THE LIBERTY,A,WEST   35 STREET,10001,3.5,$$,40.74984,-73.98556,European,drinks chicken liberty pretty sliders hour,12129674000
PARADE CAFE,A,CATON AVE,11218,4,$$,40.64754,-73.97386,QuickMeal,coffee cafe sandwich parade neighborhood friendly,17184385445
HOTEL DELMANO,,BERRY STREET,11249,4,$$$,40.719787,-73.958137,American,drinks bar hotel cocktails delmano friendly,17183871945
GUN POST LANES SNACK BAR,A,EAST GUN HILL ROAD,10469,1.5,,40.87312,-73.85204,American,bowl lanes alley game people review,17188810331
SPIRO'S CAFE & PIZZA,A,4 AVENUE,11232,3.5,$,40.65478134,-74.0043869,European,sandwich breakfast tacos friendly im love,17188405780
KRAVE IT,A,BELL BLVD,11361,3.5,$$,40.76376374,-73.77098495,Pizza,slice pizza fried im sandwich review,13478368713
DAK BAKERY,B,BOWERY,10013,3,$,40.71751,-73.99551,QuickMeal,cake bakery price birthday bun taste,12126800138
HEERMANCE FARM PURVEYORS,A,CHRISTOPHER ST,10014,4,$$,40.73251569,-74.00960754,American,delicious salad amazing produce cookies farm,12122061726
STAR LITE DELI,A,WEST   44 STREET,10036,3.5,$,40.75752,-73.98668,Other,sandwich times deli square price pastrami,12128401859
BARBOUNIA,A,PARK AVENUE SOUTH,10003,3.5,$$$,40.7382,-73.98804,European,service brunch delicious reservation table seating,12129950242
City Island in the City,A,W 151ST ST,10039,4,,40.82682,-73.93937,Other,cheese chips fish shrimp fried menu,16468959885
KENNEDY FRIED CHICKEN,A,JUNCTION BOULEVARD,11368,4,$,40.75169705,-73.87074574,American,chicken fried cheese guys price clean,17187799337
MITZ (MELLOW YELLOW COFFEE & VIBES),,1ST AVE,10128,4.5,$,40.77929,-73.94785,Other,coffee delicious spot yellow eat feel,12127227220
OLLIES TO GO,A,BROADWAY,10024,2.5,$$,40.7904902,-73.9752417,Asian,chinese ollies dish noodles lunch service,12128772298
PRET A MANGER,A,LEXINGTON AVENUE,10017,3.5,$,40.75425,-73.97383,QuickMeal,pret fresh salad friendly love lunch,16466881052
GREGORYS COFFEE,A,COURT ST,11241,3.5,$,40.69361,-73.99086,Coffee,coffee im gregorys friendly minutes nice,19293376368
42ND STREET PIZZA DINER,A,WEST   42 STREET,10036,2.5,$$,40.7619413,-74.0001028,American,pizza chicken worst experience slice card,12125944312
CHAMPION PIZZA,A,CLEVELAND PL,10012,4.5,$,40.7215271,-73.99708557,Pizza,pizza slice crust cheese pie pepperoni,12122263777
TACOS SAN LUCAS,A,JEROME AVE,10452,3.5,,40.83847,-73.91864,Latin,customer service wait amazing called couldnt,17184843198
CAFFE' ROMEO,,20 AVENUE,11204,3.5,$,40.612715,-73.989407,Coffee,xai coffee cappuccino friendly black brooklyn,17182323131
LOS ANGELES BAKERY,Z,FLUSHING AVENUE,11206,3.5,$,40.70072,-73.94349,QuickMeal,cake bakery bill cheese sandwich called,17187827023
WINGSTOP,,LIVINGSTON STREET,11217,4,$$,40.68842,-73.98199,QuickMeal,wings flavor fried spicy bbq lemon,17182609464
GOURMET GRILL,A,AVENUE N,11234,3.5,$$,40.61937,-73.916,American,chicken nice wrap friendly salad taste,17182412345
AMY'S BREAD,A,NINTH AVENUE,10011,4,$$,40.74223158,-74.00573243,QuickMeal,bread cake market amys chelsea chocolate,12124624338
L AND Z BAKERY,A,86 STREET,11214,2.5,$,40.5981026,-73.9877701,QuickMeal,coffee cake customer breakfast fresh tea,17183722329
DOS TOROS,A,COURT ST,11201,3.5,$$,40.69206494,-73.99146315,Latin,chipotle rice im bowl mexican burrito,13474973339
ICHIBA RAMEN,A,UNIVERSITY PL,10003,3.5,$$,40.73473,-73.9919199,Asian,ramen broth spicy egg friendly noodles,12127772495
THE JOHN DORY OYSTER BAR,A,WEST   29 STREET,10001,3,$$$,40.74607,-73.988396,Other,oysters drinks service bar price doris,12127929000
BAGEL DEPOT,A,RICHMOND AVENUE,10312,2.5,$$,40.5438,-74.165,QuickMeal,bagel sandwich store cheese egg island,17189488755
EDGAR'S CAFE,A,AMSTERDAM AVE,10025,3,$$,40.791404,-73.972702,Coffee,coffee cafe owner edgars dessert experience,12125956261
ESQUIRE DINER,Z,CROSSBAY BOULEVARD,11417,3,$$,40.679027,-73.843772,American,diner bacon waitress egg service table,17188457600
SAKA GURA/ KIOSK,A,EAST   43 STREET,10017,4,$$$,40.7516467,-73.97294893,Asian,lunch soba basement love beef dish,12129537253
COFFEED,A,NORTHERN BOULEVARD,11101,4,$,40.75206116,-73.92576183,Coffee,coffee pastries space barista chill close,17186061299
THE BRONX BEER HALL,A,ARTHUR AVE,10458,3.5,$$,40.854118,-73.888175,European,beer bar drinks market hall bronx,13473960555
ABOVE BALLROOM,,SOUTH AVENUE,10314,3.5,,40.61479,-74.17656,American,party wedding plate table guests hour,17184772400
OPPA,A,CANAL ST,10013,4,$$,40.7408261,-74.0047136,Asian,chicken korean bowl sauce wings sandwich,12062250663
LA RIPAILLE RESTAURANT,A,HUDSON STREET,10014,3.5,$$$,40.73728,-74.00591,European,owner french perfect delicious la atmosphere,12122554406
STARBUCKS COFFEE,A,WORLD TRADE CENTER,10007,2.5,$$,40.712117,-74.01087,Coffee,drinks barista coffee starbucks customer mobile,16468565994
BURGER & LOBSTER,,W 19TH ST,10011,4,$$,40.74007,-73.99344,American,lobster burger fried friendly roll salad,16468337532
LATIN AMERICAN RESTAURANT,A,WEST   26 STREET,10010,3.5,$,40.74368049,-73.9904952,Latin,chicken rice lunch beans friendly latin,12126892570
FAIRFIELD INN & SUITES,A,40 ROAD,11101,4,$$,40.751419,-73.935123,European,hotel stay night manhattan parking clean,17184820100
DON ALEX RESTAURANT,B,37 AVENUE,11372,2.5,$$,40.7510003,-73.8719579,Latin,chicken love fried service bad dish,17184245187
J EAST CHINESE RESTAURANT,A,3 AVENUE,10003,3,$,40.7347899,-73.98587,Chinese,chicken chinese rice fried east lunch,12125298818
CONVIVIUM OSTERIA,A,5 AVENUE,11217,4,$$$,40.68105,-73.97748,European,italian menu experience wine delicious dish,17188571833
LA BELLA PIZZA EXPRESS,A,86TH ST,11214,3.5,$,40.60191345,-73.99424744,Pizza,pizza slice delivery eat im pasta,17183722200
AGED,B,70TH RD,11375,3,$$$,40.72078652,-73.84573102,Other,steak charge age drinks friendly price,17185442433
BARBES,,NINTH STREET,11215,4,$$,40.66772461,-73.98390198,American,music live bar bartender drinks night,13474220248
CHINA LONG,A,NEPTUNE AVE,11235,2.5,$,40.582018,-73.960787,Chinese,chicken fried pork rice chinese ribs,17183325807
CALEXICO CARNE ASADA,A,UNION STREET,11231,3.5,$,40.6841796,-74.0025404,Latin,burrito amazing love salsa tacos crack,17184888226
LA GRAN URUGUAYA BAKERY & RESTAURANT,A,37 AVENUE,11372,4,$,40.7499158,-73.8813129,European,cake coffee pastries bakery leche leches,17185050404
PATSY'S PIZZERIA,B,DEAN ST,11217,4.5,$$,40.6818695,-73.976181,European,pizza delicious perfect amazing delivery patsys,17186222268
GIOVANNI RESTAURANT,A,GRAND CONCOURSE,10451,3,$$,40.8194,-73.927237,European,drinks hour chicken service eat happy,17184026996
MAR MAR RESTAURANT,A,FOREST AVE,10301,4.5,$$,40.63092,-74.10174,European,friendly marmar mar service hummus salad,17185562220
MABAT STEAKHOUSE,A,E 7TH ST,11223,4,$$$,40.6064583,-73.9655901,Other,service steak delicious fresh kosher nice,17183393300
CAFE FRESCO,A,1 AVENUE,10065,3,$,40.7646,-73.95856,Other,bagel salad sandwich fresco cheese cafe,12125359030
MARGHERITA'S PIZZA,Z,EAST  163 STREET,10459,4,,40.8221017,-73.9076204,Pizza,burrito addition friendly hot im patties,17184508380
FATIMA HALAL KITCHEN,A,BROADWAY,11106,4,$,40.76311861,-73.9275405,Chinese,chinese chicken halal taste fatimas favorite,17182780080
WA LUNG KITCHEN,A,GRAND STREET,10002,3,$,40.713919,-73.980251,Chinese,customer chicken fried rice sauce service,12122543775
BABA'S PIEROGIES,A,3RD AVE,11215,4.5,$$,40.67687,-73.98633,European,pierogies fried cheese boiled potatoes spinach,17182220777
CHICKEN V,A,86TH ST,11214,3.5,$,40.60472598,-73.99881508,Chinese,fried chicken tea called delivery eat,17185579888
THE PHLUID PROJECT,A,BROADWAY,10012,4.5,,40.7278,-73.99432,Coffee,cute nice shop store stuff buy,12126550551
HING HUNG KITCHEN,,NOSTRAND AVE,11216,3,$,40.67583,-73.94981,Chinese,chinese sauce called rice soup broccoli,17187733076
GOTHAM PIZZA,A,1 AVENUE,10028,3,$,40.777568,-73.949218,Pizza,pizza slice crust card care im,12128280888
SILVER'S CRUST WEST INDIAN RESTAURANT & GRILL,A,SUTPHIN BLVD,11434,3,$,40.68563,-73.79374,Latin,customer jerk rice service sauce breakfast,17188352527
HENDRIKS,A,3RD AVE,10016,4,$$,40.747395,-73.97649,American,brunch cheese pretty burger lobster menu,12126868080
BETWEEN THE BUN,A,101ST AVE,11419,3.5,$,40.69302,-73.81612,American,delivery burger wings delivered fried breakfast,17184806342
IL PICCOLO BUFALO,,MULBERRY STREET,10013,3.5,$$,40.71883,-73.99781,European,pizza drinks italy service table price,12122199068
LOCAL LEAF,A,3RD AVE,10016,4,$$,40.74356,-73.97992,American,xa bowl salad top local chicken,19172615782
LOOK BY PLANT LOVE HOUSE,,WASHINGTON AVE,11238,4,$$,40.67987,-73.96433,Asian,thai dish noodles pork ive spicy,17186220026
COLBEH,A,WEST 39 STREET,10018,2.5,$$$,40.75207,-73.98402,Other,persian service rice kosher meat stew,12123548181
RAMONA,A,FRANKLIN ST,11222,4.5,$$,40.73024442,-73.95782109,European,bar cocktails drinks friendly service table,13472278164
ISLAND BURGERS AND SHAKES,C,NINTH AVENUE,10019,4,$$,40.76421,-73.98802,QuickMeal,burger fried shake service top cheese,12123077934
69 BAR LOUNGE,A,69 STREET,11377,3,$,40.7468936,-73.8962587,Drink&Sweets,bar decor dive heart sort xait,13475437183
FAUSTO,A,FLATBUSH AVE,11238,4,$$$,40.67597,-73.97181,European,pasta love dish fausto egg flavor,19179091427
THE LIVE OAK,A,FRESH POND RD,11378,4,$$,40.717117,-73.901594,American,burger neighborhood bar beer wings nice,17183264920
OLIVIA'S RESTAURANT & LOUNGE,A,WESTCHESTER AVE,10472,3.5,$$$$,40.83255798,-73.86414223,Latin,drinks friendly music hookah bar birthday,13472819588
COLD STONE CREAMERY,A,UNION TURNPIKE,11366,3,$$,40.72582378,-73.79109534,Drink&Sweets,cream ice cold stone line pretty,17185915800
TIM HO WAN HELL'S KITCHEN,A,9TH AVE,10036,3.5,,40.75935,-73.99175,Chinese,bun rice pork dim shrimp sum,12122282802
FORTUNE,A,UNION TPKE,11366,4,,40.72692334,-73.78783885,Other,chinese takeout chicken wings amazing enjoyed,17185917788
FAITHY'S KITCHEN,A,DYRE AVENUE,10466,5,,40.89022974,-73.84548121,Latin,curry fish blink boyfriend caribbean chicken,17186550780
21 HOME'S KITCHEN,A,EAST   21 STREET,10010,3.5,$$,40.73944,-73.98913,Chinese,chinese chicken dish stars flavor taste,12124755049
THE STANDARD EAST VILLAGE,A,COOPER SQUARE,10003,4.5,$$$,40.727699,-73.990837,American,bar drinks love hotel nice cocktails,12124755700
GOLDEN KRUST CARIBBEAN BAKERY & GRILL,,UTICA AVENUE,11203,3.5,$,40.651924,-73.930717,Latin,patties theyre jamaican golden taste beef,17182825027
FATHER & SON DELI,A,30 AVENUE,11102,4,$,40.768596,-73.924487,Other,sandwich coffee steve deli friendly lunch,17189325900
UNITED KITCHEN,,LIBERTY AVE,11208,4.5,$,40.676409,-73.881523,Chinese,chinese eat absolutely chicken egg love,17182775162
HYATT PLACE NEW YORK MIDTOWN SOUTH,A,W 36TH ST,10018,3.5,$$,40.7504231,-73.9858266,European,stay hotel breakfast check floor hyatt,12122399100
BATTISTA RISTORANTE,A,AVENUE N,11234,4,$$,40.61848,-73.930587,European,xa pasta sauce service bread delicious,17187585500
BAHAR MASALA,B,CONEY ISLAND AVENUE,11230,3.5,$$,40.633419,-73.9674225,QuickMeal,chicken chinese meat eat afghani family,17184348088
7 GRAMS CAFFE,A,7TH AVE,10001,4.5,$,40.74560631,-73.99427754,Coffee,coffee chocolate friendly shop almond pastries,12127271777
I X CAFE,A,LINCOLN RD,11225,4.5,$$,40.66091484,-73.96138925,Latin,hot coffee soup delicious sandwich served,13475336920
LITTLE ITALY PIZZA III,A,UNIVERSITY PLACE,10003,3.5,$,40.73478317,-73.99224091,Pizza,pizza slice crust cheese ive sauce,12129894225
BROADWAY BAGEL,A,BROADWAY,10025,4,$,40.79766,-73.96927,QuickMeal,bagel cheese cream lox breakfast friendly,12126620231
JR PRIMOS RESTAURANT,,ALLERTON AVENUE,10467,2,,40.86528,-73.86761,European,called bad beans bring spanish menu,13474495680
D-LITE DONUTS,A,BROADWAY,11103,3,$,40.756958,-73.914198,American,donuts breakfast coffee bagel convenient service,17186265953
OLEANDR RESTAURANT,A,BRIGHTON BEACH AVE,11235,4,$$$,40.57718259,-73.96288455,European,russian birthday nice dessert dish oleandr,17186485484
ENVY,A,EAST   53 STREET,10022,3,,40.75716,-73.96864,Asian,floor asia booze close door hostess,12127550222
EAST COAST,A,ROGERS AVE,11226,4.5,,40.655398,-73.953264,Latin,fish cheese chips guyanese chicken girlfriend,17184508393
THE SWALLOW CAFE & ESPRESSO BAR,A,BOGART STREET,11206,3.5,$,40.705353,-73.933617,Coffee,coffee archive cafe wifi friendly movie,17183811944
BROTHERS SEAFOOD,B,WALTON AVENUE,10451,3.5,$,40.82128906,-73.92731476,Other,shrimp fish eat seafood cheese fried,13476661021
Giovanis Big Pizza,A,PROSPECT AVE,10459,4,$,40.81987834,-73.90190924,Pizza,pizza fresh friendly taste cheese clean,17188611530
HERO FACTORY,A,EAST  149 STREET,10455,3,$$,40.81002,-73.90337,QuickMeal,egg love hero joe lunch price,17189921556
THE BUND,A,QUEENS BLVD,11375,3.5,$$,40.7264405,-73.85324743,Chinese,dumplings pork bund soup chinese sauce,17182758000
LA CASA DE LOS ANOJITOS,Z,37 AVENUE,11372,4.5,$,40.749435,-73.8848299,Latin,cholado fruit delicious ice coffee colombian,17187792949
LEE'S KITCHEN,A,BURKE AVE,10467,2,$$,40.87132864,-73.86301987,Chinese,called grubhub chinese delivery ive pork,17182312003
TAVARES RESTAURANT,Z,CLEVELAND ST,11208,3.5,$,40.67941,-73.88562,Latin,chicken rice beans fried dominican cooked,13472404609
MARANI RESTAURANT,A,63RD ROAD,11374,4.5,$$,40.731202,-73.859833,European,cheese bread dish georgian flavor kosher,17185690600
JUICY CUBE,A,LEXINGTON AVENUE,10022,4,$$,40.76021194,-73.96968079,Drink&Sweets,tea bowl smoothie bubble drinks juice,12128882188
FOOD CAVE,,NORTHERN BLVD,11101,3,,40.7519514,-73.9311652,American,buffet chicken eat fried lunch line,17184409840
MANNA HOUSE BAKERY,A,EAST BROADWAY,10002,3,$,40.713562,-73.993789,QuickMeal,bakery bun manna coffee roll tea,12122676200
TINA'S CUBAN CUISINE,A,MADISON AVENUE,10016,3.5,$,40.74738,-73.98288,Latin,sandwich cuban rice lunch sauce tinas,12126793500
ANGELA'S BAKERY,,KNICKERBOCKER AVENUE,11221,3,$$,40.69427,-73.909891,QuickMeal,cake customer bakery angelas smell paint,17184180095
CAFE EVERGREEN,,1 AVENUE,10021,4,$$,40.76603182,-73.95722508,Chinese,dish dim sum chinese menu tea,12127443266
KOTEN'S CARRIBEAN & AMERICAN RESTAURANT,A,PORT RICHMOND AVE,10302,3,,40.62973,-74.14037,Latin,bring curry ive chicken goat island,19293641273
TERRACE DINER,A,26 AVENUE,11360,2.5,$$,40.7785048,-73.777002,American,diner friendly pretty review service coffee,17182244434
BYUNG CHUN SOON DAE,,NORTHERN BLVD,11354,4,$$$,40.76477889,-73.81319046,Asian,live sashimi fish menu korean meal,17184601044
WASABI POINT,A,WOODSIDE AVENUE,11373,4,$$,40.74327,-73.88814,Asian,soup spicy beef chicken tibetan momo,17182051056
JOE G  RESTAURANT (DA VINCI HOTEL),A,WEST   56 STREET,10019,4,$$,40.76564,-73.9830099,European,menu pizza italian meal price sauce,12127653160
EL RINCON DEL SABOR LATINO,A,W 47TH ST,10036,4,$,40.7577019,-73.9815292,European,avocado tilapia eat lunch meal review,12128400101
EAST SIDE BILLIARD,,EAST   86 STREET,10028,3.5,$$,40.77926,-73.95461,American,table pool play friendly hour drinks,12128317665
CHINA AAA,A,ROOSEVELT AVE,11372,2.5,,40.747361,-73.884366,Chinese,chicken delivery rice called choice im,17185058866
