,NAME,ZIP,TEL,TYPE,GRADE,LON,LAT,ADDRESS,YELP STAR
1,ORENS DAILY ROAST COFFEES & TEAS,10075,2124726830,Dessert,,-73.958922,40.7752667,"1144 Lexington Ave, New York City",4
2,LUCY'S WHEY,10128,2122898900,American,A,-73.952288,40.783651,"1417 LEXINGTON AVE, New York City",2
3,BOSIE BAKERY,10029,9173658443,QuickMeal,,-73.9404105,40.7929291,"2132 2ND AVE, New York City",4.5
4,CARVEL ICE CREAM,11414,7188433875,Dessert,A,-73.8385257,40.6519527,"16310 CROSSBAY BOULEVARD, New York City",3
5,DUNKIN' DONUTS,10022,2122231177,QuickMeal,A,-73.9631035,40.7576523,"1024 1 AVENUE, New York City",4.5
6,FLEX MUSSELS,10011,2122290222,Seafood,,-73.9996942,40.7374001,"154 WEST   13 STREET, New York City",4
7,JAVA DAY CAFE,11358,7189614444,Dessert,P,-73.8051335,40.7629702,"16009 NORTHERN BOULEVARD, New York City",4
8,TIMES SQUARE DINER & GRILL,10019,2123152400,American,A,-73.9869309,40.7615138,"807 8TH AVE, New York City",5
9,DIVIERA DRIVE,11249,3479874302,Italian,B,-73.958976,40.718322,"131 BERRY ST, New York City",2.5
10,AMMA,10022,2126448330,Asian,A,-73.9687401,40.7555456,"246 EAST   51 STREET, New York City",3.5
11,STEPHANIE'S MEXICAN BAKERY,11368,7184240371,Mexcian,A,-73.860018,40.752453,"3756 108TH ST, New York City",3.5
12,EL TAPATIO MEXICAN RESTAURANT,10029,2128763055,Mexcian,B,-73.9391913,40.7978891,"209 EAST  116 STREET, New York City",4
13,MING GARDEN CHINESE,11367,7185206706,Chinese,,-73.8154509,40.7300534,"7068 KISSENA BLVD, New York City",4
14,LA PUNTILLA BAR & RESTAURANT,11372,7184243836,American,,-73.8753975,40.7508048,"9117 37 AVENUE, New York City",2.5
15,MACONDO,10002,2124739900,American,,-73.9892194,40.7228081,"157 EAST HOUSTON STREET, New York City",5
16,STARBUCKS,10010,2126734213,Dessert,,-73.9783128,40.7364705,"400 EAST 23RD STREET, New York City",4.5
17,UNDERGROUND LOUNGE,11419,7183224144,Mexcian,,-73.820412,40.68725,"10409 123 STREET, New York City",2
18,BRANCACCIO'S FOOD SHOP,11218,7184351997,QuickMeal,,-73.978833,40.64856,"3011 FORT HAMILTON PARKWAY, New York City",4.5
19,TRADER'S EXPRESS DELI,10004,2124820620,American,,-74.0122049,40.7048421,"22 BEAVER STREET, New York City",4
20,EMPIRE EXPRESS CHINESE RESTAURANT,11215,7184993758,Chinese,A,-73.9861433,40.7289468,"319 9TH ST, New York City",5
21,YI HONG RESTAURANT,11236,7182416570,Chinese,A,-73.899778,40.6360412,"9103 AVENUE L, New York City",5
22,THE GRAFTON PUBLIC HOUSE,10009,2122288580,American,A,-73.98526,40.7272178,"126 1 AVENUE, New York City",2.5
23,POLLOS A LA BARASA MARIO,11103,7189322424,American,,-73.9392728,40.8421205,"4019 BROADWAY, New York City",2.5
24,ALBATROSS BAR,11103,7182049707,American,B,-73.9121803,40.7701915,"3619 24TH AVE, New York City",1.5
25,CLOCK WORK,10002,2126774545,American,A,-73.9900975,40.7153605,"21 ESSEX STREET, New York City",1.5
26,MIKES PIZZA,11375,7187933464,QuickMeal,,-73.855048,40.720626,"7175 YELLOWSTONE BOULEVARD, New York City",3.5
27,SHELLEY'S KITCHEN,10016,2126828808,American,A,-73.9793762,40.7507441,"90 PARK AVE, New York City",5
28,MOZZARELLA,11206,7187835555,Other,C,-73.9539154,40.6998102,"264 LEE AVE, New York City",5
29,ALFREDO'S PIZZA,11358,7185390097,Italian,Not Yet Graded,-73.801226,40.771338,"16301 29TH AVE, New York City",4
30,MCDONALD'S,10007,2126082405,American,,-74.0105647,40.7163198,"167 CHAMBERS STREET, New York City",4.5
31,BHATTI INDIAN GRILL,10016,2126834229,Asian,,-73.983076,40.7422281,"100 LEXINGTON AVE, New York City",2
32,FAMOUS BEN'S PIZZA OF SOHO,10012,2129664494,QuickMeal,A,-74.0023824,40.724973,"177 SPRING STREET, New York City",5
33,ESPACE,10036,2129677003,American,,-73.9995588,40.7618116,"635 W 42ND ST, New York City",3
34,ABILENE,11231,7185226900,American,A,-73.9977096,40.6789351,"442 COURT STREET, New York City",4
35,ZHENG FUZHOU CUISINE INC.,10002,9177706686,Chinese,C,-73.9939002,40.7148867,"13B ELDRIDGE ST, New York City",4
36,SUSHI STAR,10018,2122791010,Asian,A,-73.9951541,40.7544247,"462 9TH AVE, New York City",3.5
37,THE REDHEAD,10003,2125336212,American,,-73.9833605,40.7309371,"349 EAST 13 STREET, New York City",2
38,CLINTON STREET BAKING COMPANY,10002,6466026263,American,A,-73.9838228,40.7211907,"4 CLINTON STREET, New York City",2.5
39,BOBBY VAN'S GRILL,10020,2129575050,American,A,-73.9822828,40.7609173,"135 WEST   50 STREET, New York City",2.5
40,SABOR A MEXICO TAQUERIA,10009,2125334002,Mexcian,A,-73.9842702,40.7285016,"160 1 AVENUE, New York City",1
41,CHIPOTLE MEXICAN GRILL,10014,9172436043,Mexcian,A,-73.982577,40.669202,"405 6 AVENUE, New York City",5
42,NUCCI'S RESTAURANT,10310,7188154882,Italian,,-74.1097497,40.6296623,"616 FOREST AVENUE, New York City",3.5
43,TEN FULL,11104,7183618838,Chinese,A,-73.925119,40.7401849,"3949 48 AVENUE, New York City",4.5
44,THE ORIGINAL BLUE CANTINA,10469,3476027760,Mexcian,,-73.8394189,40.8810111,"3762 BOSTON ROAD, New York City",3.5
45,DOWNTOWN GALWAY HOOKER,10014,2126756220,European,,-74.0019991,40.7345642,"133 7 AVENUE SOUTH, New York City",2.5
46,PANINI GRILL,10022,2123004010,American,,-73.9656987,40.7551169,"937 1ST AVE, New York City",3.5
47,LITTLE BROWN JUG,11418,7188469609,American,,-73.8263016,40.7006081,"12402 JAMAICA AVENUE, New York City",4
48,THE IMMIGRANT NYC,10003,6463081724,American,A,-73.9853652,40.7285659,"341 EAST    9 STREET, New York City",2
49,AUNT BUTCHIES/ REVIVE BAR,11430,6464775291,QuickMeal,A,-73.7781391,40.6413111,"0 JFK INTERNATIONAL AIRPORT, New York City",3.5
50,UMI SUSHI,11366,7189698298,Asian,,-73.7905127,40.7263702,"17713 UNION TPKE, New York City",4
51,BOMBAY CURRY,11216,7184842475,Asian,A,-73.9494186,40.6793006,"525 NOSTRAND AVENUE, New York City",3.5
52,THE GROTTO,10004,2128096991,QuickMeal,A,-73.9362831,40.7913764,"69 NEW STREET, New York City",4
53,SUBWAY,11209,7182387068,QuickMeal,,-73.9728946,40.7644711,"8421 5 AVENUE, New York City",4.5
54,BITE,10003,2126773123,European,,-73.9861641,40.7331583,"211 EAST   14 STREET, New York City",2
55,DA MARINO RESTAURANT,10019,2125416601,Italian,,-73.9853348,40.7609075,"220 W 49TH ST, New York City",5
56,DONUT CONNECTION,11220,7182388921,American,,-73.9906003,40.7286208,"6830 3 AVENUE, New York City",4
57,GALLAGHER'S 2000,11101,7183611348,American,,-73.9275075,40.745193,"4319 37 STREET, New York City",3
58,TOASTIES,10022,7183097452,American,,-73.9684393,40.759463,"924 3RD AVE, New York City",4.5
59,MARKET PLACE (CENTERPLATE),10001,2122162426,American,,-74.0025907,40.757777,"655 WEST   34 STREET, New York City",4.5
60,12 CHAIRS,10012,2122548640,American,,-74.0023324,40.7275129,"56 MACDOUGAL STREET, New York City",5
61,STARBUCKS COFFEE #23591,11210,3475330430,Dessert,A,-73.9367369,40.622892,"1931 FLATBUSH AVE, New York City",2.5
62,PAULS DA BURGER JOINT,10003,2125293033,QuickMeal,B,-73.9880156,40.7285229,"131 2 AVENUE, New York City",4
63,BEST BAGEL & COFFEE,10001,2125644409,QuickMeal,A,-73.9910861,40.7522683,"225 WEST 35 STREET, New York City",4
64,BROOKLYN BAGEL & COFFEE COMPANY,10001,2129242824,QuickMeal,,-73.9974951,40.7461225,"286 8 AVENUE, New York City",4
65,NEW CHINA III,11377,7186725300,Chinese,A,-73.906069,40.74526,"5814 ROOSEVELT AVE, New York City",3
66,GOOGLE CHELSEA MARKET,10011,2125654428,American,B,-74.0060838,40.7425547,"75 9 AVENUE, New York City",4.5
67,THE KATI ROLL COMPANY,10018,2127304280,Asian,,-73.9845828,40.7527891,"49 WEST   39 STREET, New York City",3.5
68,LEXINGTON CANDY SHOP,10028,2122880057,American,,-73.9573006,40.7774954,"1226 LEXINGTON AVENUE, New York City",3
69,HIBACHI ON THE RUN,11212,3477709732,Asian,,-73.920672,40.661157,"1143 CLARKSON AVE, New York City",5
70,FREEMANS (FREEMANS ALLEY),10002,2124200012,American,B,-73.992272,40.721989,"191 CHRYSTIE STREET, New York City",5
71,KOWLOON CAFE,11214,7183331388,Chinese,,-73.9897592,40.5998222,"2365 86 STREET, New York City",5
72,CARIBBEAN TOP GRILL,11210,3472951385,Mexcian,A,-73.9476507,40.6348693,"2077 NOSTRAND AVENUE, New York City",1.5
73,EARL OF SANDWICH,10104,2122479246,American,A,-73.978872,40.7604895,"1290 AVENUE OF THE AMERICAS, New York City",4
74,FLAVORS CORNER,11101,7183611616,American,A,-73.9452784,40.7552237,"1018 41ST AVE, New York City",4.5
75,VAPIANO,10003,2127779477,Italian,,-73.992127,40.7342879,"113 UNIVERSITY PLACE, New York City",4
76,TONG SAM GYUP GOO YI RESTAURANT,11358,7183594583,Asian,,-73.8030154,40.7621463,"16223 DEPOT ROAD, New York City",2.5
77,HALE & HEARTY SOUP,10011,2122552400,QuickMeal,,-74.0060838,40.7425547,"75 9 AVENUE, New York City",2.5
78,FRIENDS SPORTS BAR,10462,3478515788,American,B,-73.8549088,40.835813,"1448 OLMSTEAD AVENUE, New York City",4.5
79,B.A.M. CAFE/GREAT PERFORMANCES,11217,7186237811,American,A,-73.9776999,40.6864669,"30 LAFAYETTE AVENUE, New York City",5
80,ASIAN WOK,10038,2127660821,Chinese,,-74.0058365,40.7091006,"88 FULTON ST, New York City",3.5
81,MASAWA,10027,2126630505,Other,,-73.9585846,40.8097806,"1239 AMSTERDAM AVENUE, New York City",4
82,FEDORA,10014,6464499336,American,,-74.0028946,40.7345315,"239 WEST    4 STREET, New York City",3.5
83,CASSIDY'S PUB,10019,2123970814,European,A,-73.9771995,40.7628464,"65 WEST   55 STREET, New York City",3
84,SUPER POLLO,11232,7188715700,Other,,-73.9635974,40.7771822,"4102 5 AVENUE, New York City",3
85,CHARLEY MOM KITCHEN,10028,2124396363,Chinese,,-73.948178,40.7740391,"1580 YORK AVENUE, New York City",1
86,AREPAS CAFE,11106,7189373835,American,A,-73.9277103,40.7558183,"3307 36TH AVE, New York City",5
87,KINGSTON PIZZA,11213,7187747665,QuickMeal,,-73.9418589,40.6708481,"259 KINGSTON AVENUE, New York City",4.5
88,NEW PHOENIX,10304,7188180105,Chinese,A,-74.0849579,40.6153882,"480 TARGEE STREET, New York City",3.5
89,THE RIBBON,10023,2127875656,American,A,-73.9774548,40.7765601,"20 W 72ND ST, New York City",4
90,SUPER 403 CHINESE RESTAURANT,11218,7188510403,Chinese,A,-73.9763737,40.6442616,"403 CHURCH AVENUE, New York City",5
91,TRATTORIA LUCIA,11426,7183432185,Italian,,-73.718885,40.7259478,"24763 JAMAICA AVENUE, New York City",5
92,RAVAGH PERSIAN GRILL,10003,2123350207,Asian,B,-73.9857329,40.7274097,"125 1ST AVE #127, New York City",3
93,AITA RESTAURANT/MAYFLOWER,11238,7185763584,Italian,,-73.9665911,40.6864449,"132 GREENE AVENUE, New York City",3.5
94,HERALD SQUARE MARKET,10018,2122443484,American,,-73.9926544,40.6586612,"968 6 AVENUE, New York City",4
95,MIGDALIA PLACE,11206,9178374817,American,,-73.9442368,40.6984783,"190 THROOP AVENUE, New York City",4
96,KFC,10025,2126659430,American,,-73.9682766,40.8013318,"2755 BROADWAY, New York City",2
97,PORTO BELLO PIZZERIA & RESTAURANT,11105,7182048766,QuickMeal,A,-73.9042288,40.7705082,"43-18 DITMARS BLVD, New York City",3.5
98,HAAGEN-DAZS,10065,2122885200,Dessert,A,-73.9592901,40.7628988,"1188 1 AVENUE, New York City",4.5
99,SHELLYS IRISH DELI,11378,7184240429,European,A,-73.8987262,40.7248709,"5634 66TH ST, New York City",4.5
100,PACO'S TACOS PLUS,11228,7182348226,Mexcian,,-74.009535,40.6111114,"1504 86TH ST, New York City",2.5
101,FAMILY PIZZA,11225,7184620639,QuickMeal,A,-73.9601721,40.6558571,"720 FLATBUSH AVENUE, New York City",4
102,SHEAS EMERALD,10468,7183649924,European,A,-73.8894032,40.8726919,"2960 JEROME AVENUE, New York City",4
103,5BAR KARAOKE,10001,2125946644,Asian,,-73.9874152,40.7477712,"38 WEST   32 STREET, New York City",4
104,NAGOYA SUSHI,11229,7183363688,Asian,B,-73.9544815,40.610555,"1907 KINGS HIGHWAY, New York City",5
105,CRAVE,11103,7187264976,European,,-73.9170328,40.7652343,"2855 36 STREET, New York City",4.5
106,EL PASO RESTAURANTE MEXICANO,10029,2128319831,Mexcian,B,-73.9471365,40.7906846,"1643 LEXINGTON AVENUE, New York City",2.5
107,NAGLE BAKERY,10040,6464769462,QuickMeal,,-73.9269232,40.8606734,"121B NAGLE AVENUE, New York City",3.5
108,HARDING'S,10010,2126002105,American,A,-73.9887809,40.7392836,"32 EAST 21 STREET, New York City",3.5
109,CAFE 232,11205,7186381750,Asian,,-73.9596293,40.6909248,"232 TAAFFE PLACE, New York City",3
110,HERB N' KITCHEN MARKET,10017,2122973577,American,,-73.9719069,40.7494205,"304 EAST   42 STREET, New York City",2.5
111,BAYOU,10305,7182734383,French,A,-74.0683826,40.6168075,"1072 BAY STREET, New York City",5
112,JODY'S CLUB,10301,7187276338,American,A,-74.1018183,40.6308214,"372 FOREST AVENUE, New York City",4
113,NURNBERGER BIERHAUS,10310,7188167461,European,B,-74.1096127,40.6349032,"817 CASTLETON AVENUE, New York City",4
114,LA NOSTRA PIZZERIA,10029,2123607453,QuickMeal,A,-73.940172,40.793151,"2146 2 AVENUE, New York City",3
115,LUPE'S EAST L.A. KITCHEN,10013,2129661326,Mexcian,B,-74.0045136,40.7236625,"110 AVENUE OF THE AMERICAS, New York City",3
116,CAFE BENCH,11358,7182240703,American,A,-73.7871903,40.7579166,"19409 NORTHERN BOULEVARD, New York City",4.5
117,PARAISO AZTECA RESTAURANT,11229,7189989860,Mexcian,,-73.9571216,40.6085947,"1681 EAST   16 STREET, New York City",4.5
118,Baby's Grill and Restaurant,11377,7184408121,Asian,,-73.8965902,40.7461067,"6828 ROOSEVELT AVE, New York City",3.5
119,WAT'S ON YOUR PLATE,10031,2122344411,Mexcian,,-73.948381,40.825871,"513 WEST  145 STREET, New York City",4.5
120,GINO'S PIZZERIA,10302,7182730945,Italian,,-74.1355321,40.6262426,"1351 FOREST AVENUE, New York City",4
121,THE CLAM,10014,2122427420,American,A,-74.0065674,40.7303199,"420 HUDSON ST, New York City",4.5
122,AUREOLE,10036,2123191660,American,A,-73.9852848,40.7555892,"135 WEST   42 STREET, New York City",4
123,THE SHOREHAM HOTEL,10019,2122476700,American,A,-73.9763631,40.7624988,"33 WEST   55 STREET, New York City",3.5
124,CHUCK E. CHEESE'S,10027,2122229772,QuickMeal,,-73.9527649,40.8101402,"280 ST NICHOLAS AVENUE, New York City",4.5
125,WENDY'S,10303,7189812102,QuickMeal,,-74.147417,40.6253047,"1761 FOREST AVENUE, New York City",4
126,SOPHIE'S CUBAN CUISINE,10007,2126089900,European,,-74.0076468,40.7145911,"96 CHAMBERS STREET, New York City",4.5
127,THE HIDEOUT,11209,7188364314,American,A,-73.9728946,40.7644711,"8415 5TH AVE, New York City",4
128,THE OOH LALA  LOUNGE,11233,9174008384,Other,,-73.9193122,40.6741168,"391 HOWARD AVE, New York City",5
129,FINO,11361,7182291330,QuickMeal,,-73.771381,40.764961,"3913 BELL BOULEVARD, New York City",5
130,AKIMOTO SUSHI,10007,2127663351,Asian,A,-74.0069603,40.7157374,"187 CHURCH STREET, New York City",2.5
131,CHALAIT,10001,2129290266,Dessert,,-73.9882579,40.7465011,"1214 BROADWAY, New York City",5
132,SAN MARCO PIZZERIA,11211,7183874861,Italian,,-73.9496269,40.7142498,"577 LORIMER STREET, New York City",3
133,AU BON PAIN,10001,2122445573,QuickMeal,A,-73.9895261,40.7507917,"151 WEST   34 STREET, New York City",3.5
134,PATES PLUS BAKERY,11429,7184689868,QuickMeal,,-73.7351326,40.7167414,"9715 SPRINGFIELD BOULEVARD, New York City",3
135,SHUN FOOK CHINESE RESTAURANT,11420,7188437074,Chinese,B,-73.8206948,40.670218,"13507 LEFFERTS BOULEVARD, New York City",5
136,NEW FOREST CAFE,11214,7183318833,Dessert,,-74.0001399,40.6143564,"7617 NEW UTRECHT AVE, New York City",2
137,TURKISH GRILL RESTAURANT & BAR,11104,7183923838,Other,C,-73.9221448,40.74387,"4203 QUEENS BOULEVARD, New York City",5
138,"DUNKIN' DONUTS, BASKIN ROBBINS",11417,7188430400,American,A,-73.8451497,40.6810837,"9405 ROCKAWAY BOULEVARD, New York City",3
139,PAPA JOHN'S,10128,2129964444,QuickMeal,A,-73.94946,40.7803979,"301 EAST   90 STREET, New York City",5
140,B.Q.E. CAFE BILLIARDS,11372,7187794348,American,A,-73.8958229,40.752156,"7002 34 AVENUE, New York City",3.5
141,MACDOUGAL STREET ALE HOUSE,10012,2122540006,American,B,-74.0003129,40.7298583,"122 MACDOUGAL STREET, New York City",4
142,CUPOLA SAMARKANDA,11230,7183757777,Other,A,-73.9727521,40.60913,"1797 MCDONALD AVENUE, New York City",5
143,CENTER PLATE- CONCOURSE CAFE-JACOB K JAVITS CONVENTION CENTER,10001,2122162404,Dessert,A,-74.0025907,40.757777,"655 W 34TH ST, New York City",3.5
144,WILLIAM GREENBERG JR DESSERTS,10028,2128611340,Dessert,,-73.960608,40.7787515,"1100 MADISON AVENUE, New York City",3
145,BEACH STREET EATERY,10013,7184404636,American,,-74.0095909,40.7208391,"57 BEACH STREET, New York City",5
146,TIM HORTONS,10305,7186900783,Other,,-74.0886833,40.5904735,"1562 HYLAN BOULEVARD, New York City",3.5
147,ROW NYC,10036,2128693600,American,,-73.9874449,40.7586655,"270 W 45 ST, New York City",2
148,TASTE OF LAHORE,11372,3476241294,Asian,A,-73.8933021,40.7545178,"7310 NORTHERN BOULEVARD, New York City",4
149,GOOD FORTUNE RESTAURANT,11355,7188888998,Chinese,,-73.8177395,40.7497707,"4645 KISSENA BOULEVARD, New York City",4.5
150,WING HING SEAFOOD RESTAURANT,11229,7189980360,Chinese,,-73.9596307,40.5987028,"1217 AVENUE U, New York City",4.5
151,CENTRAL CAFE SENECA,11385,9179023701,Dessert,A,-73.912125,40.705716,"487 SENECA AVE, New York City",4.5
152,WITLOF,11249,3479874305,European,A,-73.9615859,40.7143927,"292 BEDFORD AVENUE, New York City",4
153,MILENIO BAKERY,10029,6464769530,QuickMeal,,-73.9422802,40.7952754,"2030 THIRD AVE, New York City",4
154,ALOBAR RESTAURANT,11101,7187526000,American,C,-73.9533066,40.7457862,"4642 VERNON BOULEVARD, New York City",4.5
155,IMPERIAL PALACE,11354,7183580888,Chinese,,-73.8306391,40.7618767,"13613 37 AVENUE, New York City",4
156,CIRO PIZZA CAFE,10312,7186050620,Italian,A,-74.1927838,40.5333005,"862 HUGUENOT AVENUE, New York City",4.5
157,KENNEDY FRIED CHICKEN,10467,7186640303,Chinese,,-73.8673621,40.8718432,"3211A WHITE PLAINS RD, New York City",3.5
158,BOB'S STEAK & CHOP HOUSE,10022,2127545031,American,B,-73.9749476,40.7594267,"21 EAST   52 STREET, New York City",4.5
159,AMADEUS,11375,9175685140,Other,A,-73.8493872,40.7325186,"6419 108 STREET, New York City",4.5
160,THE CAPITAL GRILLE,10271,2123741811,American,,-74.0104896,40.7082363,"120 BROADWAY, New York City",4
161,MOLCAJETE,11372,7188991200,Mexcian,,-73.874088,40.7488482,"9213 ROOSEVELT AVENUE, New York City",4
162,TARTINE,10014,2122292611,Other,,-74.0034548,40.7363457,"253 WEST   11 STREET, New York City",2.5
163,BEKY BAKERY AND COFFEE SHOP,11368,7183970329,European,,-73.86366,40.751216,"3778 103 STREET, New York City",3.5
164,SWEET AFTON,11103,7187772570,American,,-73.9190267,40.7653878,"3009 34 STREET, New York City",5
165,CASCABEL TAQUERIA,10025,2126651500,Mexcian,B,-73.9680575,40.8028278,"2799 BROADWAY, New York City",2.5
166,DA NOI,10017,2127545710,Italian,A,-73.9706971,40.7547549,"214 EAST   49 STREET, New York City",4.5
167,ATHENA MEDITERRANEAN CUISINE,11215,7189654578,European,A,-73.9863899,40.6648302,"535 6 AVENUE, New York City",2.5
168,LYCHEE HOUSE,10022,2127533900,Chinese,B,-73.9694102,40.759509,"141 EAST 55 STREET, New York City",3.5
169,PEACHES,11233,7189424162,Other,,-73.9347026,40.6816671,"393-403 LEWIS AVENUE, New York City",5
170,AMC THEATRES,11360,7186310382,American,A,-73.778853,40.7794457,"21101 26 AVENUE, New York City",3
171,AMINA THAI,11432,7188801804,Asian,,-73.7922069,40.7107537,"16922 HILLSIDE AVE, New York City",4
172,AUNTIE ANNE'S PRETZELS,10001,2122396882,QuickMeal,A,-73.98449,40.7484051,"0 34 STREET, New York City",4.5
173,NEW KAM LAI CHINESE RESTAURANT,10024,2127698990,Chinese,B,-73.9758589,40.7869391,"514 AMSTERDAM AVENUE, New York City",3
174,WOODHAVEN HOUSE,11374,7188945400,European,A,-73.8673587,40.7217882,"6398 WOODHAVEN BOULEVARD, New York City",2.5
175,MOLYVOS,10019,2125827500,European,A,-73.9805666,40.7644251,"871 7 AVENUE, New York City",3.5
176,SUSHI YOU,11364,7182811188,Asian,,-73.759127,40.7408443,"21505 73 AVENUE, New York City",4.5
177,Akaru Sushi,11237,7189287688,Asian,B,-73.9160728,40.7025643,"201 WYCKOFF AVE, New York City",3.5
178,DE LA VEGA RESTAURANT,11206,7185992342,European,A,-73.9487278,40.7108449,"472 LORIMER STREET, New York City",3
179,ST MAZIE,11211,7183844807,American,A,-73.9897373,40.7167029,"345 GRAND STREET, New York City",5
180,TASTEE JERK,11412,7182850704,Mexcian,,-73.75748,40.706387,"20003 HOLLIS AVENUE, New York City",1.5
181,ARCHIE'S TAP AND TABLE,10464,7188859229,American,A,-73.789508,40.853108,"536 CITY ISLAND AVE, New York City",4
182,LAO MA MA LA TANG,11354,7183582339,Chinese,B,-73.8290939,40.759362,"13620 ROOSEVELT AVENUE, New York City",4.5
183,SHERIDAN MARKET,10451,3479188111,American,,-73.9212329,40.8267967,"191 EAST  161 STREET, New York City",3
184,PUSHCART COFFEE,10001,6466493079,Dessert,,-74.000569,40.7481226,"401 W 25TH ST, New York City",1
185,NEW CASTLE DELI & GROCERY,11434,7189955327,QuickMeal,,-73.7678901,40.6571521,"14934 GUY R BREWER BLVD, New York City",4.5
186,ESPRESSO 77,11215,7185763997,Dessert,A,-73.9912607,40.7501142,"410 7TH AVE, New York City",4
187,LAND THAI KITCHEN,10024,2125018121,Asian,,-73.9773369,40.7849823,"450 AMSTERDAM AVENUE, New York City",2
188,SABAY THAI,11373,7184247916,Asian,B,-73.889673,40.746122,"7519 BROADWAY, New York City",4
189,LAS AMERICAS BAKERY,11373,7184576437,QuickMeal,,-73.8840338,40.7466984,"4030 82 STREET, New York City",5
190,LA BOITE,10019,2122474407,American,A,-73.9937647,40.7665486,"724 11 AVENUE, New York City",3
191,UNCLE PETER'S,11372,7186518600,Other,A,-73.8838532,40.7560052,"8315 NORTHERN BOULEVARD, New York City",4.5
192,ORIENTAL CHINESE KITCHEN,11235,7188918563,Chinese,A,-73.9670038,40.5803481,"390 NEPTUNE AVENUE, New York City",4
193,NEW CHINA RESTAURANT,10457,7185837666,Chinese,B,-73.9071787,40.8445477,"240 E 174TH ST, New York City",5
194,MATSU SUSHI,11103,7187267029,Asian,A,-73.918383,40.765734,"3411 30 AVENUE, New York City",5
195,Tony's Original's Pizzeria,10301,7187204800,Other,A,-74.0793863,40.6383481,"11 CORSON AVE, New York City",4
196,DUMBO KITCHEN,11201,7187971695,American,,-74.0104273,40.7181084,"108 JAY STREET, New York City",3
197,MURPHY'S PUB & RESTAURANT,10022,2127515400,European,,-73.9679956,40.7560378,"977 2 AVENUE, New York City",4
198,OLIVE GARDEN,11239,7183481071,Italian,,-73.8693164,40.651481,"505 GATEWAY DRIVE, New York City",4.5
199,PAPI NICE BAR,10469,7183241991,American,B,-73.8602861,40.8657387,"925 ALLERTON AVENUE, New York City",3
200,INAKAYA,10018,2123542195,Asian,A,-73.9901084,40.7561001,"620 8 AVENUE, New York City",5
201,LA CABANA SALVADORENA RESTAURANT,10040,2129287872,American,A,-73.933409,40.8543694,"4384 BROADWAY, New York City",3.5
202,SUSHI CHOSI,10003,2124201419,Asian,A,-73.9868281,40.7369226,"77 IRVING PLACE, New York City",3.5
203,M SHANGHAI,11211,7183849300,Chinese,,-73.9919097,40.7177944,"292 GRAND ST, New York City",3.5
204,MADAME SOU SOU,11106,7187106577,European,A,-73.9218713,40.7633317,"3105 33RD ST, New York City",3.5
205,YE MEI BAKERY,11373,7188988005,QuickMeal,,-73.8832693,40.7428605,"8126 BROADWAY, New York City",5
206,LUCY'S ASIAN KITCHEN,11430,7186566210,Asian,A,-73.7781391,40.6413111,"0 JOHN F. KENNEDY INTL AIRPORT, New York City",3
207,ISAAC'S COFFEE SHOP,11210,7183779595,Dessert,A,-73.9462889,40.624629,"3001 AVENUE K, New York City",5
208,MY MOST FAVORITE FOOD,10023,2125805130,Other,,-73.983302,40.7795794,"247 WEST   72 STREET, New York City",3
209,DOWNTOWN BAKERY II MEXICAN FOOD,10003,2122541757,Mexcian,,-73.9872252,40.7254662,"69 1 AVENUE, New York City",4
210,YUMMY TACO,11428,7187763616,Mexcian,,-73.732973,40.7200074,"221-07 JAMAICA AVE, New York City",3
211,SALAAM BOMBAY,10013,2122269400,Asian,,-74.0104987,40.7170258,"319 GREENWICH STREET, New York City",3
212,BAIRES BAKERY,11372,7186724046,QuickMeal,,-73.8758608,40.748728,"9009 ROOSEVELT AVENUE, New York City",5
213,RAMEN LAB,10012,6466137522,Asian,A,-73.9964333,40.720959,"70 KENMARE ST, New York City",4
214,ALPHAVILLE,11237,2013042844,American,,-73.925855,40.700486,"140 WILSON AVE, New York City",3.5
215,PIZZA PETE'S,10024,2127873153,QuickMeal,,-73.9725922,40.7862402,"528 COLUMBUS AVENUE, New York City",2.5
216,TASTY DELICIOUS WEST INDIAN BAKERY & RESTAURANT,11236,7186760149,Mexcian,A,-73.9028674,40.6458674,"1397 ROCKAWAY PARKWAY, New York City",2
217,DUGOUT PUB,11377,7184298849,European,A,-73.9035356,40.7452754,"3976 61ST ST, New York City",2
218,NEIL'S COFEE SHOP,10021,2126287474,American,B,-73.9630072,40.7689107,"961 LEXINGTON AVENUE, New York City",4.5
219,SANCTUARY T,10013,2129417832,American,,-74.0035309,40.7224306,"337 WEST BROADWAY, New York City",5
220,LA NUEVA BAKERY,11372,7185072339,European,,-73.8799508,40.7500348,"8610 37TH AVE, New York City",3.5
221,JAIYA THAI & ORIENTAL RESTAURANT,10028,2127178877,Asian,,-73.9545041,40.7745221,"1553 2 AVENUE, New York City",3
222,PLOY THAI,11373,7182057298,Asian,A,-73.8830972,40.7428197,"8140 BROADWAY, New York City",4.5
223,JUST SALAD,10004,6467964322,QuickMeal,A,-74.0119961,40.7037939,"90 BROAD ST, New York City",3
224,ESTRELLA BAR & RESTAURANT,10452,7182937246,American,,-73.9164774,40.8414854,"1470 JEROME AVENUE, New York City",4
225,BETWEEN THE BREAD,10016,2127651840,American,,-73.9807539,40.7516212,"20A E 40TH ST, New York City",4
226,JUNOON,10010,2124902100,Asian,,-73.9908424,40.7431813,"27 WEST   24 STREET, New York City",5
227,LI GRECI'S STAATEN RESTAURANT,10310,7184486000,American,,-74.1123151,40.6297394,"697 FOREST AVENUE, New York City",3.5
228,ALI'S ROTI SHOP,11213,5165224875,Mexcian,B,-73.9311325,40.6664242,"337 UTICA AVENUE, New York City",4
229,KANG KEE CHINESE RESTAURANT,10002,2129662876,QuickMeal,B,-73.9946948,40.7168935,"124 HESTER STREET, New York City",2.5
230,GREAT TASTE BAKERY,10038,6466424110,QuickMeal,,-73.9969397,40.7120833,"3335 CATHERINE STREET, New York City",2
231,Sally's,11236,7189754356,Mexcian,,-73.9193028,40.6386779,"1570 RALPH AVE, New York City",3.5
232,THE PLACE BAR & LOUNGE,11222,7183831900,American,A,-73.9421954,40.7278843,"269 NORMAN AVENUE, New York City",3.5
233,MON CHER MARKET,10013,2129650007,American,A,-74.0045513,40.7166333,"339 BROADWAY, New York City",3
234,DELI DOROJ FRIED CHICKEN AND PIZZA,11223,7182652540,QuickMeal,A,-73.9837861,40.5960882,"2637 86 STREET, New York City",3
235,JADE STAR KITCHEN,11204,7183317802,Chinese,,-73.9934595,40.6161898,"7008 18 AVENUE, New York City",5
236,SAKAMAI,10002,6465900684,Asian,,-73.9881277,40.7209731,"157 LUDLOW STREET, New York City",3
237,SAKURA III,11414,7183238827,Asian,B,-73.840449,40.6597285,"158-38 CROSSBAY BLVD, New York City",3.5
238,MD KITCHEN,11230,9177899556,Italian,A,-73.9719813,40.7279529,"1012 EAST   15 STREET, New York City",3.5
239,CROWN FRIED CHICKEN,11233,3474065225,Chinese,A,-73.921791,40.674391,"431 RALPH AVENUE, New York City",3.5
240,BOTTEGA FALAI,10012,2123343132,Dessert,A,-73.9964503,40.7234824,"267 LAFAYETTE STREET, New York City",3
241,JAY'S ROTI HUT,11420,7183223473,Mexcian,,-73.8207009,40.6702185,"13509 LEFFERTS BLVD, New York City",2
242,COCOA GRINDER,11209,3475606282,Dessert,A,-74.0280804,40.6228618,"8521 4TH AVE, New York City",3.5
243,EZ BOCARITOS,10458,3475775786,European,,-73.8932392,40.8601738,"2457 WEBSTER AVE, New York City",4.5
244,BURGER KING,11362,7182295701,QuickMeal,A,-73.7385742,40.7543546,"24202 61 AVENUE, New York City",5
245,FLUSHING MEADOWS PITCH AND PUTT,11368,7182718182,American,A,-73.8339635,40.7583142,"12216 ROOSEVELT AVENUE, New York City",3
246,CHINA VILLAGE RESTAURANT,10013,2129416679,Chinese,,-73.9998923,40.7170858,"94 BAXTER STREET, New York City",3
247,LA HOGUERA PIASA RESTAURANT & BAKERY,11104,7183929903,American,,-73.9239125,40.7433495,"4012 QUEENS BOULEVARD, New York City",4
248,FAMOUS FAMIGLIA,10025,2128647193,QuickMeal,C,-73.9707385,40.7940122,"734 AMSTERDAM AVENUE, New York City",4.5
249,CORTE CAFE,10007,2127663200,QuickMeal,B,-74.0039575,40.7141238,"2 LAFAYETTE STREET, New York City",4
250,ISIS RESTAURANT,10467,7183241054,European,B,-73.8657211,40.8656142,"739 ALLERTON AVENUE, New York City",1.5
251,BRUNO'S RESTAURANT,11414,7183227866,Italian,A,-73.8404544,40.6600815,"15822 CROSSBAY BOULEVARD, New York City",5
252,CHAI THAI RESTAURANT,11249,7185995889,Asian,,-73.9596482,40.7179006,"124 NORTH    6 STREET, New York City",4
253,TASTY'S DINER,11105,7187778830,European,A,-73.9096617,40.7750776,"3304 DITMARS BOULEVARD, New York City",1
254,ALEO,10011,2126918136,Italian,,-73.9917192,40.7402169,"7 WEST   20 STREET, New York City",4
255,JUSTINOS,10019,2125821222,QuickMeal,A,-73.9886055,40.769565,"881 10TH AVE, New York City",4.5
256,DUNKIN' DONUTS/ BASKIN ROBBINS,11419,7188452649,QuickMeal,,-73.8263863,40.6860854,"11611 LIBERTY AVENUE, New York City",4.5
257,MI CASA RESTAURANT,11418,7188499636,American,Z,-73.832609,40.699166,"11620 JAMAICA AVENUE, New York City",5
258,MILL KOREAN RESTAURANT,10025,2126667653,Asian,,-73.9658571,40.8061666,"2895 BROADWAY, New York City",4
259,KENNEDY FRIED CHICKEN & PIZZA,11208,7185130174,Chinese,,-73.8796595,40.6817316,"3127 FULTON ST, New York City",4.5
260,SAL'S PIZZA / MAMMA MARIA RESTAURANT,11231,7188526890,Italian,,-73.9950902,40.6835769,"305 COURT STREET, New York City",2.5
261,TOTAL AMAZING GRACE,11226,7182824035,Mexcian,B,-73.948122,40.6510537,"3113 CHURCH AVE, New York City",3.5
262,BOSTON MARKET,10019,2122624694,American,,-73.9885373,40.7697239,"885 10 AVENUE, New York City",3.5
263,LAS MARGARITAS RESTAURANT,11209,7182383972,Mexcian,A,-73.9906003,40.7286208,"7206 3RD AVE, New York City",5
264,TOMMY'S,10032,2123681837,American,,-73.9450948,40.8331086,"3750 BROADWAY, New York City",3.5
265,KANA TAPAS BAR & RESTAURANT,10013,2123438180,European,,-74.0094194,40.7258383,"324 SPRING STREET, New York City",3.5
266,LA PIZZA & CONVENIENCE,11222,7183830666,Italian,A,-73.9532416,40.8099485,"887 MANHATTAN AVENUE, New York City",3.5
267,SERAFINA,10027,2126580226,Italian,,-73.9584604,40.810944,"1260 AMSTERDAM AVE, New York City",1.5
268,TONE AUTHENTIC GEORGIAN BAKERY & CUISINE,11235,7183328082,European,,-73.963258,40.5814768,"265 NEPTUNE AVENUE, New York City",5
269,MAYA CUISINE,11103,7187773118,European,,-73.91179,40.768194,"2442 STEINWAY ST, New York City",4.5
270,SOPHIES CUBAN CUISINE,10038,2126086769,American,A,-74.0055381,40.708933,"76 FULTON ST, New York City",3
271,BOOTLEG BAR,11237,3477156307,American,,-73.9172858,40.6987461,"1438 MYRTLE AVE, New York City",4.5
272,DOMINO'S,11207,7184954441,QuickMeal,,-73.8914092,40.6723548,"2196 PITKIN AVENUE, New York City",1.5
273,CAFE MARTIN,11215,3472616836,Dessert,,-73.983317,40.748452,"355 5 AVENUE, New York City",5
274,PAPA LEONE PIZZERIA,11235,7186481349,Italian,A,-73.9426101,40.5780673,"101103 ORIENTAL BOULEVARD, New York City",1.5
275,OCEAN DRAGON RESTAURANT,10019,2122457210,Chinese,A,-73.9886707,40.7694349,"877 10 AVENUE, New York City",3.5
276,HOU YI HOT POT,10002,2129663420,Chinese,,-73.9925768,40.7161793,"92 HESTER ST, New York City",1
277,LITTLE CHOC APOTHECARY,11211,7189630420,Dessert,,-73.9571805,40.7119099,"141 HAVEMEYER ST, New York City",2.5
278,SHERWOODS KEEP,11385,7183810400,American,,-73.9197019,40.7082673,"205 CYPRESS AVE, New York City",3.5
279,TWO8TWO BAR & BURGER,11201,7185962282,American,,-73.9897082,40.6885584,"282 ATLANTIC AVENUE, New York City",5
280,COPPER KETTLE,11377,7183357596,American,,-73.9135648,40.7458604,"5024 SKILLMAN AVENUE, New York City",3.5
281,WANG CHINA CITY,11203,7185662222,Chinese,,-73.930024,40.6538327,"756 LINDEN BOULEVARD, New York City",2.5
282,KUM GANG SAN,11354,7184610909,Asian,,-73.8271317,40.7638577,"13828 NORTHERN BOULEVARD, New York City",4
283,DUNKIN DONUTS,11434,7183410610,Other,A,-73.77036,40.672716,"16995 137TH AVE, New York City",3.5
284,MONTERO BAR & GRILL,11201,6467294129,American,A,-73.9979536,40.6914024,"73 ATLANTIC AVENUE, New York City",5
285,LA PLAYA RESTAURANT,11693,7183188435,American,,-73.812828,40.587608,"8716 ROCKAWAY BEACH BOULEVARD, New York City",2
286,D.B.A.,10003,2124755097,American,A,-73.9880465,40.7243091,"41 1ST AVE, New York City",4.5
287,TASTE OF GEORGIA,11229,7183365556,European,,-73.9554072,40.6097673,"1637 EAST   18 STREET, New York City",2.5
288,LITTLE CAESARS,11236,3473719971,QuickMeal,A,-73.9126917,40.6354802,"8008 FLATLANDS AVENUE, New York City",2.5
289,DEAD RABBIT TAVERN,10004,6464227906,European,,-74.0110308,40.7032931,"30 WATER STREET, New York City",4
290,JK & SONS COFFEE SHOP,11206,7187822366,American,A,-73.9914063,40.7327205,"801 BROADWAY, New York City",3.5
291,EMMETTS,10012,9176393571,American,A,-74.0024945,40.7273163,"50 MACDOUGAL ST, New York City",4.5
292,MERRY LAND BUFFET,10451,7182923455,Chinese,A,-73.9093565,40.8242867,"505 E 163RD ST, New York City",4.5
293,PICO,11694,7189453474,Mexcian,A,-73.849677,40.578361,"419 BEACH  129 STREET, New York City",4
294,MR TAKA RAMEN,10002,2122541508,Asian,,-73.9888983,40.7212405,"170 ALLEN ST, New York City",3.5
295,MUGS ALE HOUSE BAR,11211,7184868232,American,,-73.9556346,40.7194792,"125 BEDFORD AVENUE, New York City",5
296,PONTE VECCHIO,11209,7182386449,Italian,,-74.0293074,40.6211778,"8810 4 AVENUE, New York City",3
297,HAPPY BONES,10013,2126733754,Dessert,,-73.997103,40.7207546,"394 BROOME ST, New York City",3.5
298,CASA VERDE,10306,7189838344,Italian,A,-74.136564,40.573198,"3471 RICHMOND ROAD, New York City",3.5
299,THE BURGER BISTRO,11217,7183989800,American,A,-73.9897297,40.7413536,"177 5 AVENUE, New York City",4
300,INTERCONTINENTAL BARCLAY -  LOBBY   RESTAURANT,10004,2127555900,American,A,-73.9734883,40.7557423,"111 E 48TH ST, New York City",3
301,FAJITAS SUNRISE RESTAURANT,11385,7184180967,Mexcian,A,-73.898853,40.7003404,"5924 MYRTLE AVENUE, New York City",4.5
302,CAFE 37,10018,2123911523,QuickMeal,A,-73.9853673,40.7514965,"47 WEST   37 STREET, New York City",3.5
303,PITOPIA,10001,2122446700,Other,,-73.9960031,40.7534666,"369 W 34TH ST, New York City",4
304,J'S ON THE BAY,10305,7187200922,American,A,-74.0661163,40.6143431,"1189 BAY STREET, New York City",5
305,JUICE GENERATION,10028,2122494071,American,A,-73.9550851,40.7773095,"1486 3 AVENUE, New York City",3
306,COUNTRY THYME CUISINE,10469,3479204276,Mexcian,,-73.8376475,40.8769356,"1455 EAST  222 STREET, New York City",5
307,NEW DRAGON SEA CHINESE RESTAURANT,10458,7189338228,Chinese,,-73.884413,40.851982,"2302 CROTONA AVE, New York City",4.5
308,CHICKEN FESTIVAL,11358,7182240712,Chinese,,-73.7852968,40.7579835,"196-17 NORTHERN BLVD, New York City",4.5
309,EL NUEVO AMBIENTE RESTAURANT,11691,7183276326,American,A,-73.7543013,40.6006613,"2009 NEW HAVEN AVE, New York City",2.5
310,HUNG YIP CHINESE RESTAURANT,10036,2127191788,Chinese,A,-73.9800634,40.7558969,"7 W 45TH ST, New York City",4.5
311,HUMMUS PLACE,10023,2127993335,Asian,,-73.9803034,40.7800722,"305 AMSTERDAM AVENUE, New York City",2
312,ELEGANT CHINESE RESTAURANT,11427,7187768270,Chinese,,-73.7536785,40.7246757,"21206 HILLSIDE AVENUE, New York City",2.5
313,SILVER'S CRUST WEST INDIAN RESTAURANT & GRILL,11203,7186292880,Mexcian,A,-73.926643,40.642434,"5223 AVENUE D, New York City",4.5
314,LA VIE EN SZECHUAN RESTAURANT,10016,2126832779,Chinese,,-73.9843067,40.7472327,"14 EAST   33 STREET, New York City",4.5
315,MI BELLA DAMA RESTAURANT,11237,7186284253,European,Z,-73.9237398,40.7016524,"296 KNICKERBOCKER AVENUE, New York City",5
316,CHIFA RESTAURANT,11372,7188980108,Other,,-73.8930156,40.7545018,"7320 NORTHERN BOULEVARD, New York City",4.5
317,BACK TO JOHN'S  DELI,11215,7187227547,American,,-73.979826,40.742782,"423 3  AVE, New York City",2.5
318,TUNG THONG THAI RESTAURANT,10032,2127955995,Asian,A,-73.9385827,40.841572,"561 WEST 169TH STREET, New York City",3
319,SENTRY CENTERS,10019,6465998908,American,,-73.9824649,40.762838,"810 7 AVENUE, New York City",2.5
320,POP'S RESTAURANT,11224,7183332880,American,C,-73.9835518,40.5793623,"1511 NEPTUNE AVENUE, New York City",4.5
321,GOOD GOOD TASTE,11220,7188337555,Chinese,,-73.9361877,40.8305223,"5806 8 AVENUE, New York City",4.5
322,Maravilla's Bar & Grill,10473,7186187440,European,,-73.8553523,40.810868,"254 SOUNDVIEW AVE, New York City",4.5
323,DIMES,10002,2122409410,American,A,-73.9907951,40.7143766,"143 DIVISION STREET, New York City",3.5
324,CITYSCAPES NY,11378,7183668900,American,,-73.9119047,40.7258004,"5561 58 STREET, New York City",4
325,MA-N-POP SOUL FOOD,11233,7185746735,Other,,-73.9350262,40.6836614,"349 LEWIS AVENUE, New York City",5
326,ESSEX WORLD CAFE,10006,2127919900,American,B,-74.0121261,40.7095516,"112 LIBERTY STREET, New York City",3
327,KATO CAFE,11354,7183218818,Chinese,A,-73.8315499,40.764769,"13501 35TH AVE, New York City",3
328,CINDERELLAS RESTAURANT,10301,7182854333,Mexcian,B,-74.0799075,40.6375086,"108 VICTORY BOULEVARD, New York City",4.5
329,CHINELOS II DELI-GROCERY RESTAURANT,10031,2126906077,Mexcian,,-73.9537342,40.8202005,"530 W 136TH ST, New York City",1.5
330,DREAM CAFE,11103,7184069888,Asian,,-73.912781,40.76699,"2542 STEINWAY ST, New York City",3.5
331,SUSHI FUSSION,11367,9173005312,Asian,,-73.8222341,40.7269901,"71-32A MAIN STREET, New York City",4.5
332,AUDREY BAKERY & CAFE,10038,2126089188,QuickMeal,,-73.9979074,40.7141309,"12 CHATHAM SQ, New York City",3.5
333,THE GRAHAM,11206,7183884608,American,,-73.9433579,40.7082869,"190 GRAHAM AVENUE, New York City",3
334,MUSCAT CAFE,11366,7185914060,Other,,-73.7897471,40.7264501,"17805 UNION TURNPIKE, New York City",2.5
335,COPPOLA'S,10016,2126790070,Italian,A,-73.9815389,40.7416585,"378 3 AVENUE, New York City",5
336,TAGINE,10018,6463268014,Other,,-73.9892709,40.7539608,"221 WEST   38 STREET, New York City",3.5
337,ESQUIRE DINER,11417,7188457600,American,B,-73.8438228,40.6790431,"10545 CROSSBAY BOULEVARD, New York City",5
338,WAR MEMORIAL ICE SKATING RINK,10314,9179214213,American,A,-73.9744034,40.7678214,"0 MEMORIAL ICE SKATING, New York City",2
339,BUFFALO WILD WINGS,11375,7185449453,American,,-73.8442334,40.7204527,"107-16 71ST AVENUE, New York City",2.5
340,TWO GRANDPA'S PIZZA,10453,3472697375,Italian,,-73.9076794,40.8481249,"1839 GRAND CONCOURSE, New York City",3
341,CAFE BONJOUR DELI & PIZZA,10018,2125757070,American,A,-73.983818,40.7511996,"18 WEST 38 STREET, New York City",2.5
342,ADDEO'S RIVERDALE PIZZERIA,10471,7185494750,Italian,,-73.9041142,40.9057642,"5654 RIVERDALE AVENUE, New York City",3
343,FISH BONE,11203,3477153764,Mexcian,A,-73.9345192,40.6517203,"4525 CHURCH AVENUE, New York City",3.5
344,NAKATA SUSHI,10306,7189801891,Asian,,-74.1041,40.5872619,"1775 RICHMOND ROAD, New York City",1
345,MISTER HOTPOT,11220,7186335197,Chinese,A,-73.9361877,40.8305223,"5306 8 AVENUE, New York City",4
346,SHEEZAN RESTAURANT,10007,2129646259,Other,,-74.0070321,40.7156607,"183 CHURCH STREET, New York City",4.5
347,CJ'S PUB,11356,7183098880,Dessert,A,-73.8453637,40.7893188,"901 COLLEGE POINT BLVD, New York City",4
348,CHINA KING FOOD,11432,3473229599,Asian,,-73.7964524,40.7071467,"8902 165 STREET, New York City",1.5
349,PEACEFUL CHINESE RESTAURANT,11236,7182092111,Chinese,,-73.9135477,40.63492,"7902 FLATLANDS AVE, New York City",3
350,HUNAN DELIGHT,11215,7187891400,Chinese,,-73.9781832,40.6752926,"752 UNION STREET, New York City",2
351,MARIA'S PIZZERIA RESTAURANT,11230,7186271003,QuickMeal,A,-73.9625382,40.6122211,"1849 CONEY ISLAND AVENUE, New York City",4
352,TENDER TRAP,11222,7183896868,American,,-73.9582278,40.7295177,"68 GREENPOINT AVENUE, New York City",3.5
353,VAN LEEUWEN ARTISAN ICE CREAM,10014,9174751448,Dessert,A,-74.0012851,40.7343589,"181 WAVERLY PL, New York City",3.5
354,NORTHERN TERRITORY,11222,3476894065,American,A,-74.0022469,40.7168128,"12 FRANKLIN ST., New York City",2.5
355,ESCOLAS,11106,7184827461,American,A,-73.9289,40.755959,"3204 36 AVENUE, New York City",3
356,BLIMPIE,10467,7182314230,QuickMeal,,-73.8794643,40.8818092,"85 EAST GUNHILL ROAD, New York City",5
357,BAEKJEONG,10016,2129669839,Asian,B,-73.9850363,40.747092,"319 5TH AVE, New York City",4
358,PIZZA CHEF,11357,7187461255,QuickMeal,,-73.8090466,40.7890607,"15381 CROSS ISLAND PARKWAY, New York City",3
359,SWEET SPOT,11412,7184544210,Mexcian,,-73.762227,40.6971459,"11432 FARMERS BLVD, New York City",2.5
360,ANTONIO'S,11370,7187289200,Italian,,-73.9903972,40.6087182,"7608 21ST AVE, New York City",4.5
361,BARRACUDA BAR,10011,2126458613,American,A,-73.998305,40.744594,"275 WEST   22 STREET, New York City",3.5
362,LTK LITTLE THAI KITCHEN,10022,2126445353,Asian,A,-73.9680153,40.7573404,"231 EAST   53 STREET, New York City",4
363,KAM FUNG RESTAURANT,11234,7182530212,Chinese,B,-73.9243167,40.6192923,"5221 AVENUE N, New York City",2
364,ARIS POLLOS A LA BRASA,11221,7183819400,European,A,-73.9107435,40.6947377,"691 KNICKERBOCKER AVENUE, New York City",3.5
365,POLLOS A LA BRASA MR. MARIO,11356,7189617398,American,,-73.845977,40.783029,"1804 COLLEGE POINT BLVD, New York City",2
366,CALEXICO,11222,3477632129,American,,-73.9532416,40.8099485,"645 MANHATTAN AVENUE, New York City",4
367,SAKE BAR HAGI 46,10036,2129562429,Asian,A,-73.9901141,40.7605203,"358 W 46TH ST, New York City",3
368,BLUE MOUNTAIN GRILL,10467,7187980878,Mexcian,A,-73.8673117,40.8730022,"3257 WHITE PLAINS ROAD, New York City",3
369,UMBERTO'S CLAM HOUSE,10013,2124317545,Italian,,-73.9976166,40.7184206,"132 MULBERRY STREET, New York City",1
370,PATE'S JEANTY,11429,7184680025,QuickMeal,,-73.7343935,40.7132725,"21909 HEMPSTEAD AVENUE, New York City",3
371,ADVENTURE CAFE,10002,6468472367,Dessert,A,-73.9896868,40.718728,"85 DELANCEY ST, New York City",3.5
372,CHARLIE'S PLACE & SUSHI,10035,2124100277,Asian,A,-73.9405714,40.8062134,"1960 MADISON AVE, New York City",4
373,FOUR SEASONS BAKERY,11226,7186937996,Other,A,-73.9561344,40.6507643,"2281 CHURCH AVENUE, New York City",4
374,LA CANELA RESTAURANT & CAFE,11103,7187770778,Mexcian,A,-73.9130389,40.7658992,"2579 STEINWAY STREET, New York City",4
375,THE OTHER PLACE,11375,7185758999,American,B,-73.8491117,40.7104211,"10319 METROPOLITAN AVE, New York City",5
376,SOHO KTV & BAR,11354,9178735666,Chinese,A,-73.83238,40.7674184,"3202 LINDEN PL, New York City",4.5
377,SOUEN RESTAURANT,10014,2128077421,Asian,A,-73.9782302,40.6752344,"210 6 AVENUE, New York City",4
378,LIMA 33,11362,7182254949,Other,A,-73.7342786,40.7715303,"25404 NORTHERN BLVD, New York City",3
379,LA NUEVA VEGA,11237,6463776694,American,,-73.9220084,40.7017427,"1495 DEKALB AVENUE, New York City",4
380,CITY COLLEGE CAFETERIA,10031,2126506771,American,,-73.9515415,40.8180574,"138 ST CONVENT AVE, New York City",5
381,SZECHUAN KITCHEN,11429,7182176118,Chinese,,-73.740213,40.705262,"11202 SPRINGFIELD BLVD, New York City",5
382,LEGENDS NYC,10001,2129677792,American,,-73.9857111,40.7479328,"6 WEST   33 STREET, New York City",4
383,WORLD PIE,11231,7188520240,QuickMeal,,-73.9969743,40.680598,"404 COURT STREET, New York City",2
384,PAPAS FRIED CHICKEN AND PIZZA,11224,7189288167,Chinese,C,-73.995718,40.57313,"2919B SURF AVE, New York City",3.5
385,GOLDEN SANDS CAFE,11229,7186488898,QuickMeal,B,-73.9517668,40.5990999,"1924 AVENUE U, New York City",1
386,FRANKIES 457,11231,7184030033,Italian,A,-73.9980719,40.67738,"457 COURT STREET, New York City",4
387,THE BREAD FACTORY CAFE,10018,2122796665,American,,-73.9903332,40.7520103,"470 7TH AVE, New York City",3
388,GOOD SHEPHERD SERVICES,10003,2124754245,American,,-73.9818642,40.7337774,"337 EAST   17 STREET, New York City",4
389,AWASH ETHIOPIAN RESTAURANT,11201,7182432151,Other,A,-73.9945259,40.6858033,"242 COURT ST, New York City",3.5
390,SIMON'S,10458,7185623354,QuickMeal,A,-73.8863509,40.857441,"2479 ARTHUR AVE, New York City",2.5
391,BIG JOHN'S COFFEE SHOP & GRILL,11232,7189651808,American,A,-74.0017685,40.6564917,"865 4 AVENUE, New York City",2
392,IL SOGNO SECONDO,11215,9292959363,Italian,Not Yet Graded,-73.9860001,40.7469979,"310 5TH AVE, New York City",3.5
393,CHINA XIANG,10036,2129676088,Asian,,-73.9923783,40.7580804,"360 W 42ND ST, New York City",5
394,SNACK BAR (LOCATED BETWEEN A-B BETWEEN FANCY FOOD AND MASTERS),10474,7185422900,American,A,-73.8720055,40.8067286,"355 FOOD CENTER DRIVE, New York City",3.5
395,STICKY RICE,10002,2122748208,Asian,,-73.9904772,40.7179481,"85 ORCHARD STREET, New York City",3.5
396,OSLO COFFEE ROASTERS,10021,3472552508,Dessert,,-73.953699,40.7691558,"422 EAST   75 STREET, New York City",3
397,GIGINO AT WAGNER PARK,10004,2125282228,Italian,A,-74.0175619,40.7049736,"20 BATTERY PLACE, New York City",3.5
398,CHIRPING CHICKEN,10065,2128792509,Chinese,B,-73.9591949,40.763969,"1219 1ST AVENUE, New York City",4.5
399,TAPOUT FITNESS,10029,2123693063,Dessert,,-73.9445206,40.7911939,"1915 3RD AVE, New York City",3.5
400,GIOVANNI'S,10452,7185382054,QuickMeal,A,-73.9201166,40.8351312,"76 EAST  167 STREET, New York City",2
401,PALACE FRIED CHICKEN,11418,7188464200,Chinese,,-73.8432166,40.6949607,"10402 JAMAICA AVE, New York City",4.5
402,UNITED GROCERY & DELI,10013,2123343379,QuickMeal,B,-74.008475,40.722532,"177 HUDSON STREET, New York City",4
403,RIO DELA PLATA BAKERY,11373,7182715422,QuickMeal,,-73.8677227,40.7423085,"9465 CORONA AVE, New York City",3.5
404,GREEK EXPRESS,10463,7186014976,European,A,-73.9075377,40.8874702,"3733 RIVERDALE AVENUE, New York City",4.5
405,PONDICHERI,10001,7138200154,Asian,B,-73.9882462,40.7445059,"15 W 27TH ST, New York City",5
406,KO SUSHI,10021,2124391678,Asian,,-73.9594433,40.7677359,"1329 2 AVENUE, New York City",2.5
407,MIKES DELI RESTAURANT,11236,7182572900,QuickMeal,C,-73.903184,40.650258,"10013 FOSTER AVE, New York City",3.5
408,MARCY & MYRTLE COFFEE BAR,11206,9176620727,Dessert,,-73.9492852,40.6950617,"574 MARCY AVE, New York City",3.5
409,DUE FRATELLI,11372,7184245222,Italian,,-73.8891931,40.7493859,"7623 37TH AVE, New York City",5
410,HI LIFE BAR & GRILL,10024,2127877199,American,,-73.97623,40.7855119,"477 AMSTERDAM AVENUE, New York City",4
411,CITY CAFE,10036,2127640444,QuickMeal,,-73.9819819,40.7550857,"35 WEST   43 STREET, New York City",5
412,T.G.I. FRIDAY'S,11375,7187933263,American,A,-73.8477705,40.7210293,"7000 AUSTIN STREET, New York City",1.5
413,HARNEY & SONS TEA,10013,2129334853,Dessert,B,-73.9994719,40.7213388,"433 BROOME STREET, New York City",3
414,BURGER ONE NYC,10075,2127370095,American,,-73.9588243,40.7753957,"1150 LEXINGTON AVENUE, New York City",3
415,AMERICAN CHEEZ,11215,3477254665,American,,-73.9904759,40.7512144,"444 7TH AVE, New York City",3
416,TROPICAL TWIST BAKERY & RESTAURANT,11226,3474137860,Mexcian,A,-73.9576628,40.64421,"1081 FLATBUSH AVE, New York City",5
417,TACO VELOZ VIP,10454,3479189466,Mexcian,A,-73.9238611,40.8098189,"359 EAST  138 STREET, New York City",3.5
418,ALL STAR PIZZA,10308,7182272000,QuickMeal,B,-74.1644691,40.5594838,"694 ARTHUR KILL ROAD, New York City",1
419,KENNEDY CHICKEN &SANDWICHES,10452,3472716218,Chinese,A,-73.9190353,40.8353457,"101 EAST  167 STREET, New York City",4.5
420,SKINNYPIZZA,10281,7187786392,Italian,A,-74.0152654,40.7119835,"225 LIBERTY ST, New York City",2.5
421,KOFTE PIYAZ RESTAURANT,11232,3472277036,Other,Z,-73.9684784,40.7704839,"881 5TH AVE, New York City",4.5
422,169 BAR,10002,9175772077,American,,-73.98976,40.713838,"169 EAST BROADWAY, New York City",2.5
423,LA ISLA RESTAURANT,11206,7183884666,American,,-73.941951,40.70109,"6 GRAHAM AVENUE, New York City",4
424,NEVADA DINER,11373,7184262229,American,,-73.8827133,40.7374003,"8026 QUEENS BLVD, New York City",3.5
425,GINGER,10018,2127683100,Chinese,,-73.989532,40.7534396,"512 7 AVENUE, New York City",4
426,PEQUENA,11217,7186430000,Mexcian,,-73.9747113,40.6868872,"86 SOUTH PORTLAND AVENUE, New York City",2.5
427,THE SPOT AT CENTER COURT,10027,2128703043,American,A,-73.9640282,40.8108449,"475 RIVERSIDE DRIVE, New York City",4.5
428,SHOWMAN'S CAFE,10027,2128648941,American,,-73.9534343,40.8113958,"375 WEST  125 STREET, New York City",5
429,JOE'S PUB,10003,2125398778,American,,-73.9918202,40.729032,"425 LAFAYETTE STREET, New York City",3
430,HUGHES HUBBARD & REED LLP,10004,2128376272,American,A,-74.0138065,40.7033758,"1 BATTERY PARK PLAZA, New York City",4
431,NEW TASTY HOUSE,11355,7188861608,Chinese,,-73.8223699,40.7535167,"4414 KISSENA BLVD, New York City",3.5
432,AMERICA GOURMET FOOD,10001,2128689790,QuickMeal,,-73.9929261,40.6584013,"831 6 AVENUE, New York City",2
433,TEUTA QEBAPTORE,10458,6464020405,European,,-73.8879147,40.8546031,"603 E 186TH ST, New York City",3
434,GREAT JONES CAFE,10012,2126744728,American,A,-73.9921584,40.72672,"54 GREAT JONES ST, New York City",2.5
435,CASA ASIA,11357,7187676868,Chinese,,-73.81459,40.7890159,"14945 14 AVENUE, New York City",4
436,THE CREEK AND THE CAVE,11101,7187068783,Mexcian,,-73.9517041,40.7432457,"1093 JACKSON AVENUE, New York City",4
437,MOM'S PIZZA,10009,2127773434,American,,-73.978531,40.7205485,"15 AVENUE D, New York City",4
438,J&V FAMOUS PIZZA,11204,7182322700,QuickMeal,,-73.9896959,40.6199498,"6322 18 AVENUE, New York City",4
439,HATSUHANA RESTAURANT,10017,2123553345,Asian,A,-73.9769071,40.757038,"17 EAST   48 STREET, New York City",3
440,OCEAN CHINESE RESTAURANT,11362,7182798893,Chinese,,-73.7382788,40.7572717,"24510 HORACE HARDING EXPRESSWAY, New York City",2.5
441,CHE BELLA PIZZA,10027,2128647300,Italian,,-73.9591141,40.8089857,"1215 AMNSTERDAM AVENUE, New York City",3.5
442,AJISEN RAMEN,10013,2122679680,Asian,C,-73.9985052,40.7141563,"14 MOTT STREET, New York City",2.5
443,SILVER KRUST WEST INDIAN RESTAURANT,11216,7186042076,Mexcian,C,-73.9501159,40.6718627,"747 NOSTRAND AVENUE, New York City",2.5
444,BELLA VITA,10019,2126647670,QuickMeal,,-73.978792,40.7656726,"158 WEST   58 STREET, New York City",4.5
445,D & R HEALTH & NUTRITION/ HERBALIFE,11377,3476177185,Dessert,A,-73.908973,40.744836,"5514 ROOSEVELT AVENUE, New York City",3
446,CAOBA BROOKLYN BISTRO,11207,3474046886,American,,-73.8964076,40.6784737,"100 JAMAICA AVE, New York City",3.5
447,ROSEBANK TAVERN,10305,7184479423,American,,-74.065229,40.6124807,"1258 BAY STREET, New York City",4
448,PEKING CHINESE RESTAURANT,11365,7183803777,Chinese,A,-73.7838083,40.7349608,"6978 188TH ST, New York City",4
449,VIDA ENERJETICA HERBALIFE,11102,7186261205,Other,,-73.9271839,40.7720793,"1804 ASTORIA BOULEVARD, New York City",3.5
450,FLANNERY'S BAR,10011,2122292122,American,,-73.9998882,40.7389086,"205 WEST   14 STREET, New York City",4.5
451,GOLDEN KRUST CARIBBEAN BAKERY & GRILL,11212,7183427576,Mexcian,,-73.9121172,40.6696393,"1655 PITKIN AVENUE, New York City",3.5
452,KHAN LOUNGE,11103,6463405603,Dessert,A,-73.9130582,40.7658627,"2581 STEINWAY STREET, New York City",4.5
453,YAMATO,11215,7188400099,Asian,B,-73.997453,40.742192,"168 7 AVENUE, New York City",3.5
454,LE BARRICOU,11211,7187827372,European,,-73.981486,40.7144122,"533 GRAND STREET, New York City",2.5
455,THE COFFEE HOUSE,10036,2128407696,Dessert,A,-73.9813453,40.7551233,"20 WEST   44 STREET, New York City",5
456,GARDEN OF EAT-IN,11230,7182525289,Other,,-73.9617662,40.6249234,"1416 AVENUE J, New York City",2.5
457,PICCOLI,11218,7187880006,Italian,A,-73.9735371,40.6547772,"157 PROSPECT PARK SOUTH WEST, New York City",4
458,TIMNA,10009,6469645181,European,,-73.9838819,40.7272131,"109 SAINT MARKS PL, New York City",5
459,DOUBLE DOWN SALOON,10009,2129820543,American,A,-73.985741,40.722516,"14 AVENUE A, New York City",4.5
460,VYBES KITCHEN,10469,3473466500,Mexcian,C,-73.8491672,40.8717066,"1296 GUNHILL ROAD, New York City",3
461,NIRVANA,10016,2129830000,Asian,,-73.977387,40.7500156,"346 LEXINGTON AVENUE, New York City",3.5
462,KORYODANG BAKERY & CAFE,11362,7182298200,QuickMeal,A,-73.7386405,40.7668933,"248-12 NORTHERN BLVD, New York City",3
463,CELLO WINE BAR,10022,9174751131,American,,-73.9681028,40.7573762,"229 EAST   53 STREET, New York City",3.5
464,CHINATOWN RESTAURANT,10128,2129873500,Asian,,-73.9512923,40.7829608,"1650 3RD AVE, New York City",5
465,BOULTON & WATT,10009,6464906004,American,A,-73.9863608,40.7225201,"5 AVENUE A, New York City",2.5
466,THE ABBEY,11211,7185994400,Dessert,,-73.9562527,40.7174836,"536 DRIGGS AVENUE, New York City",3
467,LE SOUK,10012,2127775454,Other,,-73.9993615,40.7279315,"510 LAGUARDIA PLACE, New York City",3.5
468,CEMITAS PUEBLA RESTAURANT,10467,7185477350,European,,-73.8681267,40.8656562,"679 ALLERTON AVE, New York City",2
469,CORCHO WINE ROOM,10034,2122033371,Dessert,,-73.9275851,40.8660953,"227 DYCKMAN STREET, New York City",3.5
470,WICHCRAFT,10017,2127800577,QuickMeal,A,-73.9787589,40.7556125,"555 5 AVENUE, New York City",4
471,ARROW,10009,2126731775,American,,-73.9844149,40.7252906,"85 AVENUE A, New York City",2.5
472,RICHIE RICH CARIBBEAN TASTE II,10469,7187088431,Mexcian,,-73.849862,40.8755731,"3357 FISH AVENUE, New York City",2.5
473,WEST END HALL BEER GARDEN,10025,2126627200,American,A,-73.9675441,40.8009369,"2756 BROADWAY, New York City",3.5
474,PHO BANG RESTAURANT,11373,7182051500,Asian,,-73.8807708,40.7412571,"8290 BROADWAY, New York City",4.5
475,REBEL COFFEE,10014,2126450825,Dessert,A,-74.0047572,40.7378313,"19 8TH AVE, New York City",3
476,JOHN'S DELI,11223,7183727481,QuickMeal,A,-73.9849694,40.5971239,"2033 STILLWELL AVE, New York City",3.5
477,ELITE PASTRIES CAFE,11361,7184234400,QuickMeal,A,-73.7675726,40.7559983,"4736 BELL BLVD, New York City",5
478,LA MARINA BAR RESTAURANT,11368,3479422808,Mexcian,,-73.863131,40.747256,"10117 43 AVENUE, New York City",5
479,PADO SUSHI,11358,7183213047,Asian,B,-73.7943632,40.7537379,"17153 46 AVENUE, New York City",3.5
480,SMOOCH,11205,7186244075,Dessert,,-73.9721676,40.6897551,"266 CARLTON AVENUE, New York City",3
481,DRAGON CITY RESTAURANT,11435,7186580088,Chinese,A,-73.8064753,40.6980292,"9510 SUTPHIN BLVD, New York City",4.5
482,SAFE HORIZON,10027,2126952220,American,A,-73.9487839,40.8093846,"209 WEST 125 STREET, New York City",3
483,BLEND,11109,6465462675,American,A,-73.9569049,40.7479835,"4540 CENTER BLVD, New York City",5
484,ZUTTO,10013,2122333287,Asian,,-74.0090997,40.7184744,"77 HUDSON STREET, New York City",4
485,WARREN 77,10007,2122278994,American,,-74.0103619,40.7150571,"77 WARREN STREET, New York City",4.5
486,BAGELBERRY,11102,7189321425,QuickMeal,A,-73.9207233,40.7668301,"3113 30 AVENUE, New York City",4
487,CAFFE BORBONE,11103,7187771023,Dessert,A,-73.911678,40.7675709,"2507 STEINWAY STREET, New York City",4
488,CHINA TASTE,10305,7189875269,Chinese,,-74.0935037,40.5847627,"1812 HYLAN BOULEVARD, New York City",2.5
489,XO RESTAURANT,10013,2129658645,Chinese,A,-73.9961027,40.7174369,"148 HESTER STREET, New York City",4.5
490,NEW UNITED II,11233,7184551617,Chinese,A,-73.9112321,40.6813466,"53 ROCKAWAY AVE, New York City",4.5
491,68 MEI MEI BAKERY,11214,7183318089,Chinese,A,-74.0010168,40.6130429,"7814 NEW UTRECHT AVENUE, New York City",3.5
492,TABLE 71 @ MARRIOTT CORTYARD,10001,2122394569,Other,A,-73.9867576,40.7504345,"71 WEST 35TH ST, New York City",5
493,PETE'S RESTAURANT & PIZZERIA,11361,7184289351,Italian,A,-73.771776,40.764516,"3926 BELL BOULEVARD, New York City",4
494,NUSARA THAI KITCHEN,11373,7188987996,Asian,,-73.8814239,40.7411784,"8280 BROADWAY, New York City",5
495,ITAL FUSION,11210,3473509816,Other,B,-73.9475984,40.6346749,"2085 NOSTRAND AVE, New York City",4
496,KOSHER HUT OF BROOKLYN,11223,7183768996,Other,,-73.965316,40.6064262,"709 KINGS HIGHWAY, New York City",4.5
497,NEW CHINA BUFFET,10306,7189873388,Chinese,A,-74.1114995,40.5675657,"2626 HYLAN BOULEVARD, New York City",4
498,LA PULPERIA,10036,2129603176,European,A,-73.9902681,40.7609632,"371 W 46TH ST, New York City",2
499,CRYSTAL PALACE,11435,7185589295,Other,C,-73.8177981,40.7081579,"13831 QUEENS BOULEVARD, New York City",4
500,SZECHUAN GOURMET,10021,2127371838,Chinese,,-73.9582308,40.7693371,"1395 2ND AVE, New York City",2.5
501,BECCOFINO,10471,7184322604,Italian,A,-73.9004525,40.905329,"5704 MOSHOLU AVENUE, New York City",4
502,CHEF 28,10016,2126851525,Chinese,,-73.984934,40.7439096,"29 E 28TH ST, New York City",4
503,ZADIE'S OYSTER ROOM,10009,6466021300,American,,-73.9826542,40.7298525,"413 EAST 12 STREET, New York City",1.5
504,EL ANCLA DE ASTORIA RESTAURANT & BAR,11102,3478087460,Other,,-73.9272421,40.7710409,"2808 21 STREET, New York City",4.5
505,LIC CORNER CAFE,11101,6463229469,Dessert,,-73.9474565,40.7467068,"2103 45TH RD, New York City",3.5
506,PARADISE BAR,11385,7188940234,American,,-73.906247,40.7050436,"678 WOODWARD AVENUE, New York City",3
507,FAIRFIELD INN CHELSEA,10001,2122060998,Other,B,-73.99144,40.7462092,"116 WEST   28 STREET, New York City",3.5
508,YUMMY YUMMY CHINESE RESTAURANT,11417,7188480808,Chinese,,-73.844126,40.676531,"13206 CROSSBAY BOULEVARD, New York City",4.5
509,EL NUEVO JOBO RESTAURANT & BAR,10032,2127401616,American,B,-73.9422235,40.8384324,"3915 BROADWAY, New York City",1.5
510,EL MEZCAL BAR & GRILL,11435,7186400964,Mexcian,A,-73.8119528,40.7025449,"13931 JAMAICA AVE, New York City",2
511,BASIK,11211,3478897597,American,,-73.9445297,40.7139617,"323 GRAHAM AVENUE, New York City",5
512,UNO PIZZERIA AND GRILL,10028,2124725656,QuickMeal,,-73.9532285,40.7781906,"220 EAST   86 STREET, New York City",3.5
513,MEI YU SPRING RESTAURANT,10038,2127661777,Chinese,A,-73.9969739,40.7125434,"29 CATHERINE STREET, New York City",5
514,BXL EAST,10022,2128887782,European,,-73.9698286,40.7560559,"210 EAST 51 STREET, New York City",4.5
515,JUST ONE TAVERN,10470,7189948323,Dessert,,-73.8674865,40.8978766,"4279 KATONAH AVE, New York City",4.5
516,ENDLESS SUMMER,11205,9179478787,QuickMeal,B,-73.9558923,40.6910117,"525 DEKALB AVE, New York City",3
517,GRASSROOT TAVERN,10003,2122602876,American,,-73.9889576,40.7288932,"20 ST MARKS PLACE, New York City",1.5
518,MYRTLE THAI RESTAURANT,11205,7184221142,Asian,A,-73.96806,40.6930385,"438 MYRTLE AVENUE, New York City",3
519,LUCY'S CANTINA ROYALE,10119,2126431270,Mexcian,,-73.993056,40.751389,"1 PENN PLAZA, New York City",2.5
520,CHILI'S GRILL & BAR,11385,7183664272,American,,-73.8694469,40.7092514,"8016 COOPER AVENUE, New York City",3
521,PADISHAH RESTAURANT,11229,7187439656,Asian,,-73.9518499,40.5991033,"1920 AVE U, New York City",4
522,K-TOWN FOOD COURT,11361,7182291480,Asian,,-73.7814847,40.7536652,"46-40 FRANCIS LEWIS BOULEVARD, New York City",3.5
523,ANDY'S RESTAURAUNT,10035,2128602614,American,A,-73.9369076,40.8025881,"2262 3 AVENUE, New York City",4.5
524,AMERICAN & LATIN CUISINE,11216,7183993322,American,,-73.9498696,40.6809173,"522 NOSTRAND AVENUE, New York City",3.5
525,THE DISH RESTAURANT,10011,2123529800,American,,-73.999989,40.7437309,"201 8 AVENUE, New York City",2
526,TAQUERIA EL PUENTE,11209,7189212580,Mexcian,A,-73.9728946,40.7644711,"9300 5TH AVE, New York City",4.5
527,CURRY & CO.,11040,7187495418,Asian,,-73.7026299,40.7522879,"27119 UNION TPKE, New York City",5
528,LA NONNA RISTORANTE BAR ENOTECA,11249,7183021100,Italian,,-73.964565,40.7187346,"184 KENT AVE, New York City",5
529,LITTLE SKIPS,11221,7184840980,Dessert,A,-73.9313123,40.6976941,"941 WILLOUGHBY AVE, New York City",3.5
530,SALVO'S,10075,6465901925,Italian,,-73.9511279,40.7709227,"1477 YORK AVENUE, New York City",4.5
531,EL PARADOR CAFE,10016,2126796812,Mexcian,,-73.9746937,40.7445057,"325 EAST   34 STREET, New York City",4.5
532,PEET'S COFFEE & TEA/JETBOX,11430,7187514768,American,A,-73.7781391,40.6413111,"NKA JFK INTERNATIONAL AIRPORT, New York City",2
533,NO. 142 BAR,10012,2124772404,American,,-74.002213,40.7271061,"142 SULLIVAN ST, New York City",5
534,NEW YORK MUFFINS,11249,7185990202,QuickMeal,,-73.9582817,40.7173152,"198 BEDFORD AVENUE, New York City",2.5
535,EDGAR'S CAFE,10025,2125956261,Dessert,A,-73.9726831,40.791392,"650 AMSTERDAM AVE, New York City",3
536,BLUE HILL RESTAURANT,10011,2125391776,American,,-73.9996827,40.7320494,"75 WASHINGTON PLACE, New York City",5
537,JAMBA JUICE,10019,2128239600,Dessert,A,-73.9831903,40.7684251,"10 COLUMBUS CIRCLE, New York City",5
538,GRAMERCY STAR CAFE,10010,2125053663,American,,-73.9842543,40.7398336,"23 LEXINGTON AVENUE, New York City",3.5
539,CHARRUA,10002,2126775838,European,B,-73.9876176,40.7200486,"131 ESSEX ST, New York City",5
540,LI'L JAYS CAFE,10019,2122396884,Dessert,A,-73.9892342,40.7707237,"524 W 59TH ST, New York City",3.5
541,CRAZY WILLYS BAR,11418,7184415617,American,,-73.832158,40.6994615,"11710 JAMAICA AVE, New York City",5
542,TRINCITI KITCHEN,11420,7186414646,Mexcian,A,-73.820867,40.68018,"11111 LEFFERTS BOULEVARD, New York City",1
543,ACADEMY RESTAURAUNT,11217,7182379326,American,A,-73.9757587,40.6873161,"69 LAFAYETTE AVENUE, New York City",3.5
544,LAHORE DELICATESSEN,10012,2129651777,Other,A,-73.9963895,40.7247678,"132 CROSBY STREET, New York City",4.5
545,LA ESTRELLA TROPICAL,10467,7187985723,European,,-73.8649348,40.8711393,"744 BURKE AVENUE, New York City",3.5
546,NEW STAR,11235,7188916868,Chinese,,-73.9477267,40.5927916,"2212 AVENUE X, New York City",3
547,DEACON BRODIE'S,10036,2122621452,European,A,-73.9904249,40.7606719,"370 WEST 46 STREET, New York City",2
548,KAVA CAFE,10036,9172071110,Dessert,,-73.9952605,40.7593076,"470 WEST   42 STREET, New York City",3
549,BICHEIRO'S CAFE,11418,9175006383,American,B,-73.8418431,40.6954272,"10505 JAMAICA AVENUE, New York City",4
550,FAY DA BAKERY,10013,2129668934,QuickMeal,A,-73.9997895,40.7186898,"191 CENTRE STREET, New York City",2.5
551,GYRO UNO,11103,7182744870,European,,-73.9136068,40.7653024,"2801 STEINWAY STREET, New York City",4
552,MAMMA ROSA'S,10469,7188810242,QuickMeal,,-73.8583339,40.8656905,"1007 ALLERTON AVENUE, New York City",4.5
553,CAFE LUNA,10309,7182278582,Italian,C,-74.234435,40.523651,"31 PAGE AVENUE, New York City",5
554,MANHATTAN 3 DECKER RESTAURANT,11222,7183896565,American,,-73.9532416,40.8099485,"695 MANHATTAN AVENUE, New York City",3.5
555,LENNY & JOHN'S PIZZA,11234,7182529710,Italian,A,-73.9345332,40.6201198,"2036 FLATBUSH AVENUE, New York City",5
556,LONGHORN STEAKHOUSE,11373,7183351371,American,,-73.8678231,40.7340908,"9230 59TH AVE, New York City",4.5
557,COLSON PATISSERIE,11215,7189656400,QuickMeal,,-73.9852273,40.7283254,"374 9 STREET, New York City",2.5
558,MK KARAOKE,10001,2125643436,Asian,,-73.9862098,40.7477351,"11 WEST   32 STREET, New York City",1.5
559,HUDSON STATION,10001,2122444406,American,,-73.9954924,40.7536713,"440 9 AVENUE, New York City",4.5
560,THE UP & UP,10012,9177106040,American,,-74.000472,40.7296935,"116 MACDOUGAL ST, New York City",3
561,SPREADS,10016,2127585555,American,A,-73.9830067,40.7443398,"441 PARK AVENUE SOUTH, New York City",3.5
562,S.R. DELI GROCERY,11373,7184768059,Mexcian,A,-73.87392,40.743265,"9114 43 AVENUE, New York City",4
563,Z-TWO DINER & LOUNGE,10309,7183566800,American,,-74.230729,40.527271,"2925 VETERANS ROAD WEST, New York City",4
564,ANI SUSHI,11201,7189231800,Asian,A,-73.9936635,40.6944374,"142 MONTAGUE STREET, New York City",4
565,JO JO PIZZA & BURGERS,10451,7182920601,QuickMeal,,-73.9243007,40.8179302,"231B E 149TH ST, New York City",5
566,Q MARQET,10029,2128311754,American,,-73.9537346,40.7886376,"38 E 98TH ST, New York City",3
567,L'AMICI,11434,7189786300,QuickMeal,,-73.7764224,40.6634487,"16053 ROCKAWAY BOULEVARD, New York City",4
568,MOKBAR,10011,6469645963,Asian,,-74.0060838,40.7425547,"75 9th AVE, New York City",5
569,RED LOBSTER,11239,4072455773,Seafood,,-73.8700453,40.6509162,"455 GATEWAY DR, New York City",4
570,KING WAH RESTAURANT ZHANG,11377,7186518080,Chinese,,-73.8971005,40.7546159,"6911 NORTHERN BLVD, New York City",5
571,ROTI BOTI RESTAURANT,11102,7182787888,Other,A,-73.9262369,40.7718629,"2709 21 STREET, New York City",3.5
572,765 FOOD MARKET,10017,2126976080,QuickMeal,A,-73.9729402,40.7491569,"765 2 AVENUE, New York City",5
573,SPICE,10025,2128644168,Asian,A,-73.964578,40.801536,"975 AMSTERDAM AVE, New York City",5
574,RYUJIN RAMEN,11211,7187099888,Asian,,-73.9820948,40.7144075,"513 GRAND ST, New York City",3
575,SHELLCOVE & CHINGER,11373,7185026668,Asian,A,-73.8800411,40.7408701,"8302 BROADWAY, New York City",3.5
576,DELICIOUS FRUIT,10457,9178193453,QuickMeal,A,-73.90754,40.847254,"1820 GRAND CONCOURSE, New York City",3.5
577,BAY HOUSE BISTRO,10304,7185560480,Asian,,-74.0766016,40.6278912,"574 BAY ST, New York City",4
578,GEORGE'S,10006,2122698026,American,A,-74.0097722,40.7221373,"8789 GREENWICH STREET, New York City",5
579,SHILLA UNION,11354,7184453155,Asian,A,-73.8265948,40.7714651,"2918 UNION STREET, New York City",5
580,NEW MING'S KITCHEN,11373,7183699162,Chinese,,-73.8657003,40.7369468,"5615 JUNCTION BLVD, New York City",1
581,TUSCANY GRILL,11209,7189215633,Italian,B,-73.9906003,40.7286208,"8620 3 AVENUE, New York City",5
582,JUDY'S SPANISH RESTUARANT,10029,2128310193,European,,-73.9500894,40.7866094,"1505 LEXINGTON AVE, New York City",5
583,CHEN YUAN CHINESE FOOD,11221,7189192542,Chinese,A,-73.9106382,40.6941583,"714 KNICKERBOCKER AVENUE, New York City",2.5
584,TORO,10011,2126912360,European,A,-74.0081402,40.7430227,"85 10TH AVE, New York City",4
585,BAGELICIOUS,11375,7184593596,QuickMeal,A,-73.8491481,40.7327145,"6401 108 STREET, New York City",2.5
586,EL CASTILLO RESTAURANT,10459,7184508694,American,A,-73.896539,40.821321,"935 EAST  163 STREET, New York City",1.5
587,FABIANE'S CAFE & PASTRY,11211,7182189632,QuickMeal,A,-73.9589118,40.716538,"142 NORTH    5 STREET, New York City",4
588,TARTINERY,10281,6467558484,European,A,-74.0152654,40.7119835,"225 LIBERTY ST, New York City",5
589,GRAND ARMY BAR,11217,7184227867,Seafood,,-73.986586,40.688159,"336 STATE ST, New York City",3.5
590,MYUNG SAN RESTAURANT,11358,7188881245,Asian,B,-73.8030972,40.7621556,"16221 DEPOT ROAD, New York City",3.5
591,PIG AND KHAO,10002,2129204485,Asian,,-73.9848038,40.7192718,"68 CLINTON STREET, New York City",4
592,DE MARCO COFFEE,10022,2127029136,Dessert,A,-73.9714247,40.7567148,"569 LEXINGTON AVENUE, New York City",2.5
593,"GROVE SMOOTHIE KING, RED MANGO, ILLY",11430,7184255678,Dessert,,-73.7781391,40.6413111,"0 JFK INTERNATIONAL AIRPOR, New York City",4.5
594,PARK AVENUE WINTER,10010,2129517111,American,,-73.9855768,40.7421039,"360 PARK AVENUE SOUTH, New York City",3
595,PINA DULCE RESTAURANT,11219,7184355726,European,,-73.9996782,40.7589089,"914 39TH ST, New York City",5
596,JOEY PEPPERONI,10016,2122135558,QuickMeal,A,-73.9790023,40.7409749,"493 2ND AVE, New York City",4.5
597,VIEW OF THE WORLD TERRACE CLUB,10006,6467463200,American,,-74.013961,40.7098673,"140 WASHINGTON STREET, New York City",4.5
598,GRACE PIZZA,11385,7184176018,Italian,,-73.8808275,40.7021348,"7005 MYRTLE AVENUE, New York City",5
599,FOO ON CHINESE RESTAURANT,11432,7182971287,Chinese,A,-73.778561,40.7135984,"18304 HILLSIDE AVENUE, New York City",4
600,GOOD KITCHEN SEAFOOD RESTAURANT,11354,7188868233,Chinese,,-73.8321798,40.7615159,"13529 37 AVENUE, New York City",5
601,CARLOS AND GABBY'S,11367,7185758226,Other,A,-73.825009,40.7337688,"6711 MAIN STREET, New York City",2
602,LOCAL SHOP,10012,2122532601,American,A,-74.0020555,40.727089,"144 SULLIVAN STREET, New York City",2.5
603,VIVI BUBBLE TEA,10036,2129560288,Dessert,,-73.99235,40.759368,"607 9TH AVE, New York City",3.5
604,WOO CHON RESTAURANT,11355,7184630803,Asian,B,-73.8288337,40.7581016,"4119 KISSENA BOULEVARD, New York City",4
605,SARABETH'S,10019,2128265959,American,A,-73.9756694,40.765125,"40 CENTRAL PARK SOUTH, New York City",3
606,PEKING KITCHEN,10462,7188297464,Chinese,A,-73.8665222,40.8543674,"724 LYDIG AVENUE, New York City",3
607,CHINA ONE RESTAURANT,11220,7189728233,Chinese,,-73.9356831,40.8314596,"4503 8TH AVE, New York City",2
608,MARIO'S,10304,7189791075,American,A,-74.1014386,40.5896637,"1657 RICHMOND RD, New York City",4.5
609,DUFFY'S,10310,7184479276,American,A,-74.1107786,40.6295647,"650 FOREST AVENUE, New York City",3.5
610,LA LIBERTAD RESTAURANT,11417,7183233900,European,A,-73.842465,40.6809129,"9619 LIBERTY AVENUE, New York City",5
611,G'S HOMESTYLE COOKING,11435,7182629320,Mexcian,,-73.8065122,40.6980754,"9508 SUTPHIN BOULEVARD, New York City",2.5
612,THE HARD HATE CAFE,10301,6467736001,Other,,-74.0757709,40.6398308,"90 BAY ST, New York City",2.5
613,MUSTANG THAKALI KITCHEN,11372,7188985088,Asian,,-73.8912298,40.74875,"7414 37 AVENUE, New York City",3.5
614,CORNER BISTRO,10014,2122429502,American,Z,-74.0037823,40.7380122,"331 WEST    4 STREET, New York City",3.5
615,JEREMY'S ALE HOUSE,10038,2129643537,American,,-74.0021069,40.707725,"228 FRONT STREET, New York City",1.5
616,GREEN LAKE,11226,7182840088,Chinese,,-73.9591676,40.6532452,"795 FLATBUSH AVENUE, New York City",2.5
617,THE BISTRO,10018,2129120009,American,A,-73.9925544,40.7544922,"307 W 37TH ST, New York City",4.5
618,CAFE FRESCO,10022,2123555151,American,A,-73.9655126,40.7621449,"205 EAST   60 STREET, New York City",3
619,GEORGE'S RESTAURANT,11206,7183887794,American,,-73.9931034,40.7297744,"733 BROADWAY, New York City",2.5
620,ECUA POLLOS DELI RESTAURANT,11221,7185735276,American,A,-73.926816,40.6977424,"1262 MYRTLE AVENUE, New York City",2.5
621,JIMMY'S CORNER,10036,2122219510,American,,-73.984838,40.756594,"140 WEST   44 STREET, New York City",2.5
622,MIA PIZZA,11105,7187771700,QuickMeal,A,-73.9143902,40.7790622,"2417 DITMARS BOULEVARD, New York City",1.5
623,BOMBAY SANDWICH CO,10001,6467819756,Other,,-73.9904104,40.7449454,"48 W. 27TH STREET, New York City",5
624,LA PARRANDA MEXICANA BAR & RESTAURANT,11214,7182663722,Dessert,,-73.990078,40.5994087,"2366 86 STREET, New York City",3.5
625,TAJADAS BAKERY & RESTAURANT,11421,7188460101,American,,-73.848425,40.694853,"9705 JAMAICA AVENUE, New York City",4
626,VINNY VINCENZ,10003,2126740707,QuickMeal,,-73.9830962,40.7311787,"231 1 AVENUE, New York City",4
627,EL RINCON DE LA VIEJA BAKERY AND RESTAURANT,11355,3475423893,American,B,-73.8225849,40.7571866,"4186 BOWNE STREET, New York City",3.5
628,"EMPLOYEE CAFETERIA, SOCIAL SECURITY ADMINISTRATION OFFICE",11432,7185575811,American,A,-73.8009004,40.7026796,"155-10 JAMAICA AVE, New York City",4.5
629,WHITE CASTLE,11373,7184260618,QuickMeal,A,-73.8731593,40.7347721,"8903 57 AVENUE, New York City",3
630,L'ARTUSI,10014,2122555757,American,A,-74.0051219,40.7337258,"228 WEST   10 STREET, New York City",1
631,IL GATTOPARDO,10019,2122460412,Italian,A,-73.9763981,40.7616956,"13-15 WEST 54TH STREET, New York City",4.5
632,RIVERDALE PIE GUYS,10471,7187086128,QuickMeal,,-73.8978702,40.905297,"5784 MOSHOLU AVENUE, New York City",2.5
633,TERRA BLUES,10012,2127777776,American,,-73.9992499,40.7284254,"149 BLEEKER STREET, New York City",4
634,KINGDOM CAFE & RISTORANTE,10312,7189486988,Italian,,-74.1601481,40.5448741,"4350 AMBOY ROAD, New York City",4
635,D'ALESSANDRO'S CORNER GRILL,11361,7182247455,American,,-73.7711483,40.7644551,"3935 BELL BOULEVARD, New York City",4.5
636,FRANCO'S,10451,3475771466,QuickMeal,,-73.921482,40.817328,"295 EAST  149 STREET, New York City",5
637,WASABI POINT,11373,7182051056,Asian,A,-73.8881615,40.743306,"7618 WOODSIDE AVENUE, New York City",4
638,QUEENS COFFEE SHOP,11368,7184293552,American,,-73.8559465,40.7513484,"10880 ROOSEVELT AVENUE, New York City",2.5
639,TEXAS CHICKEN & BURGERS,11004,7187495118,Chinese,A,-73.7121228,40.7366982,"25521 HILLSIDE AVE, New York City",5
640,ROSE BAKERY,10016,6468377754,European,B,-73.9817188,40.7440962,"160 LEXINGTON AVE, New York City",3.5
641,THAI SON,10013,2127322822,Asian,A,-73.9995252,40.7167776,"89 BAXTER STREET, New York City",2.5
642,DALLAS BBQ,11374,7185929000,Other,A,-73.8635717,40.7333304,"6135 JUNCTION BOULEVARD, New York City",4
643,RUSTIC TABLE,10036,2122440744,European,A,-73.995872,40.759451,"500 W 42ND ST, New York City",4
644,SAHARA GRILL,11420,9294993526,Other,B,-73.8185309,40.675834,"11916 ROCKAWAY BLVD, New York City",3.5
645,SILVER STAR RESTAURANT,10065,2122494250,American,,-73.9615571,40.7640017,"1236 2 AVENUE, New York City",2
646,EAST MEETS WEST,11694,7184745999,Chinese,,-73.8496301,40.5783663,"421 BEACH  129 STREET, New York City",4
647,GENNARO RESTAURANT,10025,2126655348,Italian,,-73.9717285,40.7917717,"665 AMSTERDAM AVENUE, New York City",4
648,MORGAN STANLEY EMPLOYEE CAFETERIA,10004,2122760256,American,A,-74.0118801,40.7020841,"1 NEW YORK PLAZA, New York City",4
649,KOA RESTAURANT,10010,2123885736,Asian,,-73.9916518,40.7405173,"12 W 21ST ST, New York City",3.5
650,TROPICAL ISLE CARRIBEAN RESTAURANT,11419,7188484753,Mexcian,A,-73.8244341,40.6863516,"118-19 LIBERTY AVENUE, New York City",4.5
651,QUALITY MEATS,10019,2123717777,American,,-73.9761967,40.7649625,"57 WEST   58 STREET, New York City",4
652,GOOD ENOUGH TO EAT (A.G. BISTRO),10024,2125793194,American,,-73.9727735,40.7859871,"520 COLUMBUS AVENUE, New York City",2.5
653,ROYAL BAKERY & ROTI SHOP,11216,7186040200,Mexcian,A,-73.9500255,40.6774284,"618 NOSTRAND AVENUE, New York City",3.5
654,MESS HALL,10026,6466923098,American,A,-73.9539875,40.8058563,"2194 FRDRCK DGLS BLVD, New York City",2.5
655,NUEVA AMBATENITA LA ESQUINA DEL SABOR,11368,7184782215,American,,-73.8590417,40.7507633,"3924 108 STREET, New York City",3.5
656,LINCOLN PARK BAR & GRILL,10019,2129742826,American,,-73.9865168,40.7675726,"867 9 AVENUE, New York City",5
657,8 PAET RIO,11373,9178326672,Asian,A,-73.8837041,40.7431242,"8110 BROADWAY, New York City",1.5
658,BLACK TAP,10013,9176393089,American,A,-74.0043125,40.7238189,"529 BROOME ST, New York City",3.5
659,DELTA SKY CLUB,11430,7187042350,American,,-73.7781391,40.6413111,"4 JKF INTL AIRPORT, New York City",5
660,EL PATIO,11432,7185584441,European,A,-73.7803725,40.7087034,"18005 JAMAICA AVENUE, New York City",4
661,CROCUS,11216,7186222426,Dessert,,-73.9447686,40.6864734,"328 TOMPKINS AVE, New York City",5
662,INSOMNIA COOKIES,10016,2153831320,QuickMeal,,-73.9789487,40.7450181,"482 3 AVENUE, New York City",3.5
663,ONOMEA,11211,3478449559,Other,A,-73.9562856,40.7139315,"84 HAVEMEYER STREET, New York City",5
664,CORATO I PIZZA & RESTAURANT,11385,7184976177,Italian,,-73.8969097,40.7058161,"6694 FRESH POND ROAD, New York City",3.5
665,LUCKY DRAGON BAKERY,11220,7188513688,QuickMeal,B,-73.9361877,40.8305223,"5214 8 AVENUE, New York City",1.5
666,FOREST HILLS BAGELS,11375,7182635858,American,,-73.8378659,40.7189556,"11210 QUEENS BOULEVARD, New York City",4
667,THE BOWERY BALLROOM,10002,2125332111,American,,-73.9933374,40.7204379,"6 DELANCEY STREET, New York City",4
668,3 WAY RESTAURANT,10458,7182959595,American,B,-73.8935665,40.8598975,"384 EAST  188 STREET, New York City",3.5
669,MESA AZTECA,11237,3473782838,Mexcian,,-73.9201247,40.7051223,"91 WYCKOFF AVENUE, New York City",2
670,MODERN GOURMET,10003,2126770047,American,,-73.9916175,40.732147,"793 BROADWAY, New York City",5
671,MIDDLE BRANCH,10016,2122131350,American,,-73.9794616,40.7452845,"154 EAST   33 STREET, New York City",2
672,MANITOBA'S,10009,2129822511,American,A,-73.9812246,40.7246678,"99 AVENUE B, New York City",3.5
673,"ORGANIC FOOD, NATURAL JUICES AND COFFEE SHOP",11368,9174201425,European,,-73.8680868,40.7493107,"9706 ROOSEVELT AVE, New York City",5
674,ASIAN GOURMET,10029,2128603399,Asian,,-73.9500062,40.7867285,"1509 LEXINGTON AVENUE, New York City",4
675,HARLEM BURGER CO.,10026,9177141411,American,,-73.954103,40.8057419,"2190 FREDERICK DOUGLASS BLVD, New York City",4
676,LA DULCE BAKERY,11377,7182055399,American,,-73.8976928,40.7460338,"6710 ROOSEVELT AVENUE, New York City",3.5
677,NINO'S RESTAURANT,10021,2129880002,Italian,A,-73.9553309,40.7681212,"1354 1 AVENUE, New York City",4
678,YOPPARAI,10002,2127777253,Asian,Z,-73.985732,40.719125,"151 RIVINGTON STREET, New York City",2.5
679,TEA SHOP 168 & BAKERY,11355,7184600689,Chinese,B,-73.8259178,40.7433073,"5920 MAIN STREET, New York City",3.5
680,THE SPOT CAFE,11385,3479874411,Dessert,,-73.8969792,40.7072772,"6105 MADISON ST, New York City",3.5
681,ARUNEE THAI,11372,7182055559,Asian,A,-73.8873596,40.7494363,"7823 37TH AVE, New York City",3
682,CHASE TASTE BUFFET,11435,7185588666,Chinese,,-73.804928,40.70221,"14921 JAMAICA AVE, New York City",3.5
683,SUSHI SUSHI,10027,2128667876,Asian,,-73.9594816,40.8152394,"54 TIEMANN PLACE, New York City",2.5
684,Pizza Guys,11233,3474250685,QuickMeal,Z,-73.9202983,40.6853835,"93 HOWARD AVE, New York City",5
685,ZEN 6,10003,2125336855,Asian,,-73.9882073,40.7290672,"31 SAINT MARK'S PLACE, New York City",3
686,FORT HAMILTON DINER,11209,7182385151,American,,-74.0314395,40.6160142,"9502 FOURTH AVENUE, New York City",3.5
687,PUFFY'S TAVERN,10013,2122273912,American,A,-74.0090849,40.7185523,"81 HUDSON STREET, New York City",4.5
688,VON,10012,2124733039,American,A,-73.99259,40.725475,"3 BLEECKER STREET, New York City",3.5
689,LA BOINA ROJA STEAK HOUSE,11372,7184246711,American,,-73.8854891,40.7495032,"8022 37 AVENUE, New York City",2.5
690,RIVER JAPANESE CUISINE,11364,7187477390,Asian,B,-73.7564358,40.7479927,"6144 SPRINGFIELD BOULEVARD, New York City",4
691,NATIONAL BAKERY,10467,7186533870,QuickMeal,,-73.864681,40.865699,"767 ALLERTON AVENUE, New York City",3
692,DAIRY QUEEN GRILL & CHILL,10301,7184476035,American,,-74.0725262,40.644212,"10 FERRY TERMINAL DR, New York City",4.5
693,PALM COURT,10019,2127593000,American,,-73.9743547,40.7646095,"768 FIFTH AVE, New York City",2
694,BARAWINE,10027,6467564154,European,,-73.9473059,40.8043657,"27 W 120TH ST, New York City",3.5
695,CAPRI II PIZZA,10475,7186713822,QuickMeal,,-73.8280644,40.877569,"149 DREISER LOOP, New York City",2.5
696,ISLAND PRIDE RESTAURANT,11203,7183451034,Mexcian,,-73.926363,40.652628,"5403 CHURCH AVENUE, New York City",5
697,MORNINGSTAR RESTAURANT,10022,2125881050,American,A,-73.9686148,40.7552279,"949 2 AVENUE, New York City",4
698,NEW THRIVING RESTAURANT,11419,7188358888,Chinese,,-73.822726,40.686518,"12012 LIBERTY AVENUE, New York City",3.5
699,GYRO EXPRESS,11370,7182781230,European,A,-73.9909175,40.6082291,"7706 21ST AVE, New York City",3.5
700,ELENA'S RESTUARANT,10453,9177377100,Mexcian,A,-73.9096211,40.8521139,"5 WEST TREMONT AVENUE, New York City",1.5
701,FAIRFIELD INN & SUITES,11101,7188416355,Other,A,-73.9353779,40.7521849,"2927 40 ROAD, New York City",5
702,FRESCO ON THE GO,10022,2127542700,American,,-73.9740984,40.7586002,"40 EAST   52 STREET, New York City",3
703,MA DUKES,10030,2122348403,Other,A,-73.947093,40.8152647,"2492 FREDERICK DOUGLASS BLVD, New York City",5
704,HOTEL TORTUGA,10003,2122281884,Mexcian,A,-73.9854606,40.7322869,"246 EAST   14 STREET, New York City",3
705,VENICE PIZZA,10462,7188285664,QuickMeal,,-73.8574277,40.8366717,"1539 UNIONPORT ROAD, New York City",1.5
706,KANAN INDIAN RESTAURANT,11215,7183693777,Asian,B,-73.9793236,40.7440798,"452 3RD AVE, New York City",4
707,HANA SUSHI,11209,7182384513,Asian,,-73.9459503,40.7754426,"524 86TH ST, New York City",5
708,APERION PRODUCTION,11205,3475855596,Other,,-73.9597039,40.6977148,"777 KENT AVENUE, New York City",2
709,RESTAURANT TATIANA,11235,7188915151,Other,B,-73.9615078,40.5754377,"3152 BRIGHTON 6TH ST, New York City",3
710,ANNADALE TERRACE,10312,7189840700,American,,-74.1772319,40.5422472,"801 ANNADALE RD, New York City",3
711,RICHIE RICH CAIBBEAN AND AMERICAN CUISINE,10467,3473415551,Mexcian,A,-73.8644307,40.8716122,"769 BURKE AVENUE, New York City",4.5
712,VAPOR LOUNGE AND RESTAURANT,10033,6469227095,American,,-73.937877,40.846991,"4160 BROADWAY, New York City",4
713,CAFE BOULUD/BAR PLEIADES,10021,2127722600,European,A,-73.9639685,40.7742859,"20 EAST   76 STREET, New York City",4
714,DELIS 48,10036,2127689600,American,,-73.9803734,40.7580048,"48 W 48 STREET, New York City",3.5
715,CREATIVE EDGE CATERERS,10014,2127413000,American,,-74.008558,40.732037,"110 BARROW STREET, New York City",2.5
716,LILI'S 57,10019,2125865333,Chinese,,-73.9805678,40.7654547,"200 WEST   57 STREET, New York City",3.5
717,STAR LITE DELI,10036,2128401859,QuickMeal,,-73.98695,40.7575534,"212 WEST   44 STREET, New York City",2.5
718,THE BOILER ROOM,10003,2122547536,American,B,-73.9892331,40.7259477,"86 EAST    4 STREET, New York City",1.5
719,GREEN FIG BAKERY CAFFE,11232,7183698937,Dessert,A,-73.9977573,40.7556832,"462 36 STREET, New York City",5
720,33 Gourmet,10001,2129041351,QuickMeal,B,-73.9905133,40.7503215,"157 WEST   33 STREET, New York City",5
721,EPICE CAFE,10001,2122434673,American,A,-73.9936251,40.7463269,"297 7TH AVE, New York City",3.5
722,NOT GUILTY DELICATESSEN,10301,7184485143,QuickMeal,,-74.0773161,40.6420199,"19 HYATT ST, New York City",3
723,MURALS ON 54/RANDOLPHS'S,10019,2122477000,American,C,-73.9782725,40.7624022,"65 WEST   54 STREET, New York City",3
724,TACOS MATAMOROS RESTAURANT,11220,7188717627,Mexcian,,-73.9635974,40.7771822,"4508 5 AVENUE, New York City",2.5
725,LOS FELIZ,10002,2122288383,Mexcian,A,-73.9889627,40.7194163,"109 LUDLOW STREET, New York City",4.5
726,ROSARINA BAKERY,10463,6464499278,QuickMeal,,-73.9095787,40.8750751,"5219 BROADWAY, New York City",5
727,SARAH'S ARTISANAL KITCHEN,10016,2127791050,American,,-73.9808355,40.7513905,"270 MADISON AVE, New York City",5
728,PIZZA DADDY,11204,7182597300,Italian,,-73.9815102,40.6141335,"6422 BAY PARKWAY, New York City",3.5
729,BLACK CRESCENT,10002,2124771771,Seafood,,-73.985024,40.7188944,"76 CLINTON ST, New York City",3
730,SUSHI SEKI,10011,2122555988,Asian,A,-73.9964179,40.7441081,"208 W 23RD ST, New York City",1
731,ANTHONY'S PIZZA,10462,7187926020,QuickMeal,,-73.8663185,40.8449485,"686 MORRIS PARK AVE, New York City",4.5
732,8 ST GARDEN,11220,7184359692,Chinese,,-73.9356831,40.8314596,"5805 8TH AVE, New York City",4
733,EL REENCUENTRO BAR RESTAURANT,11372,7185051227,European,,-73.9721545,40.7939374,"3559 95TH ST, New York City",5
734,AMY RUTH'S RESTAURANT,10026,2122808779,Other,,-73.950318,40.8025045,"113 WEST  116 STREET, New York City",3.5
735,WEBSTER CAFE,10458,7187339634,American,,-73.8838988,40.8673384,"2873 WEBSTER AVENUE, New York City",3
736,TINA'S RESTAURANT,10019,2123154313,American,A,-73.9757143,40.7630334,"23 WEST 56 STREET, New York City",3
737,CRBEAN COFFEE,10304,5149289531,Dessert,Not Yet Graded,-73.97609,40.7555722,"135 VANDERBILT AVE, New York City",3.5
738,METROPOLITAN CLUB,10022,2128387400,American,,-73.971905,40.764873,"1 EAST   60 STREET, New York City",3.5
739,WOK 88,10128,2128288688,Chinese,,-73.9531586,40.7803952,"1570 3 AVENUE, New York City",1
740,TARBOOSH CAFE,11209,7186446698,Asian,,-73.9728946,40.7644711,"7222 5 AVENUE, New York City",4.5
741,ARTURO'S PIZZA,10028,2122882430,QuickMeal,,-73.9472849,40.775231,"1610 YORK AVE, New York City",5
742,GINGERS (DOUBLE TREE HOTEL),10036,2127191600,American,,-73.9845637,40.7589488,"1568 BROADWAY, New York City",4
743,JUNIPER,11211,7187828777,American,B,-73.9590324,40.7188999,"112 BERRY STREET, New York City",2.5
744,IHOP,11206,7184081368,QuickMeal,A,-73.9414363,40.7009849,"785 FLUSHING AVENUE, New York City",3.5
745,TERIYAKI BURRITO HOUSE,11201,9174000800,Asian,A,-73.9790429,40.6897106,"96 DEKALB AVE, New York City",1
746,Y & Y BAKERY,11219,7183313292,QuickMeal,,-73.998537,40.625774,"6306 14 AVENUE, New York City",3.5
747,AIRE ANCIENT BATHS,10013,2122743777,Dessert,,-74.0047812,40.7182375,"88 FRANKLIN ST, New York City",5
748,AOA BAR & GRILL,10013,2129251600,American,,-73.9896727,40.7016239,"6 YORK STREET, New York City",2.5
749,PARK CAFE,10019,2123154567,American,,-73.9807358,40.7645778,"861 7 AVENUE, New York City",4
750,KROLEWSKIE JADLO,11222,7183838993,European,,-73.9537213,40.8092891,"694 MANHATTAN AVENUE, New York City",3
751,HASAKI RESTAURANT,10003,2124733327,Asian,A,-73.9888263,40.7296772,"210 EAST 9 TH STREET, New York City",4
752,SUSHI HANA,10002,2123889688,Asian,,-73.987947,40.719773,"111 RIVINGTON STREET, New York City",4
753,SUSANO'S PIZZERIA & RESTAURANT,11385,7183811717,QuickMeal,A,-73.9080144,40.7032144,"679 SENECA AVENUE, New York City",2.5
754,LA NUEVA VICTORIA RESTAURANT,10025,2128651810,Chinese,A,-73.971952,40.79371,"2536 BROADWAY, New York City",3
755,BALKH SHISH KABAB HOUSE,11105,7187215020,Other,,-73.9133496,40.7742415,"2310 31ST ST, New York City",2.5
756,JOE JR. RESTAURANT,10003,2124735150,American,A,-73.985873,40.734631,"167 3RD AVE, New York City",2
757,LA ABUNDANCIA,11368,7182057923,European,A,-73.8705844,40.7514968,"3701 JUNCTION BOULEVARD, New York City",3
758,JP STREET,10003,2123889881,Asian,,-73.993969,40.7310349,"52 E 8TH ST, New York City",4
759,MANDARIN HOUSE I,10466,7186522770,Chinese,,-73.8472371,40.8879388,"4129 LACONIA AVENUE, New York City",5
760,EL MEKKAH BAR & GRILL,11237,9175183475,American,,-73.9133683,40.7010127,"277 WYCKOFF AVE, New York City",2.5
761,SUMO TERIYAKI,11211,7187828400,Asian,,-73.9571421,40.7119666,"139 HAVEMEYER ST, New York City",4.5
762,SAM'S PIZZA,10463,7185489070,QuickMeal,A,-73.9060626,40.8793838,"232 WEST  231 STREET, New York City",4.5
763,CAFE B'WAY 46,10036,2129381333,American,B,-73.9842179,40.7579608,"146 W 46TH ST, New York City",4.5
764,SNOWDONIA PUB,11106,3477305783,Other,A,-73.927405,40.7578909,"3455 32ND STREET, New York City",4.5
765,THAI POT,11375,7188973898,Asian,B,-73.8497475,40.7248768,"10307 QUEENS BLVD, New York City",4
766,TEDDY'S CAFE,10473,7182397050,American,,-73.8432085,40.8243588,"805 ZEREGA AVENUE, New York City",4
767,SANDWEDGE GRILLE,10467,7186559164,American,A,-73.8805095,40.883669,"3751 JEROME AVE, New York City",2.5
768,CRANBERRY CAFE,10036,2127309495,American,,-73.9833587,40.7572692,"115 WEST   45 STREET, New York City",3.5
769,MR. COCO,11358,7184454600,Asian,A,-73.804297,40.755861,"4515 162 STREET, New York City",1.5
770,BIG ALS CHICAGO PIZZA,10006,2129643269,QuickMeal,A,-74.0118083,40.7089543,"9 THAMES STREET, New York City",2.5
771,VEGGIES,11225,3475338262,Dessert,A,-73.9514452,40.6644382,"994 NOSTRAND AVE, New York City",3
772,MERCI MARKET,10036,2125609300,QuickMeal,,-73.9922148,40.7579169,"350 WEST   42 STREET, New York City",2.5
773,L'ENCANTO D'LOLA,10026,2122226969,Mexcian,,-73.9512414,40.8000242,"57 LENOX AVENUE, New York City",5
774,JAKE'S SALOON,10011,2123665110,American,,-74.0013962,40.7459334,"202 9 AVENUE, New York City",4.5
775,PATSY'S PIZZERIA,10017,2128789600,Italian,A,-73.972106,40.7504194,"801 2 AVENUE, New York City",4.5
776,KAM TUNG RESTAURANT,11694,7189454400,Chinese,A,-73.8381552,40.580984,"261 BEACH  116 STREET, New York City",4
777,STARBUCKS COFFEE,10065,2127724281,Dessert,,-73.9650501,40.7686084,"695 PARK AVENUE, New York City",4
778,ARTURO'S,10028,2125354480,Italian,,-73.947847,40.775478,"1617 YORK AVENUE, New York City",5
779,MAPO TOFU,10016,2128678118,Chinese,,-73.977521,40.7498282,"338 LEXINGTON AVENUE, New York City",3.5
780,BI WON,11364,7182244585,Asian,A,-73.7563091,40.7474051,"6158 SPRINGFIELD BOULEVARD, New York City",5
781,LA NUEVA COCINA RESTAURANT,10468,7185617067,American,B,-73.8970758,40.8671455,"12 EAST KINGSBRIDGE ROAD, New York City",5
782,BELVEDERE CAFE,10036,2122457000,American,,-73.9880216,40.7616718,"319 WEST   48 STREET, New York City",4
783,TALK OF THE TOWN RESTAURANT,11372,7185339131,Asian,,-73.8935493,40.7480732,"3721 72 STREET, New York City",5
784,BON APPETIT RESTAURANT,11428,6467375512,Other,,-73.7478432,40.71568,"21145 JAMAICA AVENUE, New York City",4
785,TRUE TASTE RESTAURANT,11216,7184535205,Chinese,B,-73.9407939,40.6831965,"553 THROOP AVENUE, New York City",3
786,BISTRO CATERERS,10019,2125869191,American,A,-73.9812958,40.7612525,"147 WEST   51 STREET, New York City",3.5
787,AGRA RESTAURANT,10065,2123088281,Asian,A,-73.9664813,40.7641921,"807 LEXINGTON AVENUE, New York City",3.5
788,TWIN DRAGONS ASIAN CUISINE,10301,7187206568,Chinese,A,-74.0767216,40.6442062,"54 RICHMOND TER, New York City",3.5
789,SWEET DREAM BAKERY,11220,7188511976,QuickMeal,,-73.93552,40.8267444,"4612 7TH AVE, New York City",4
790,HANE SUSHI,10009,2125989889,Asian,,-73.9797339,40.7346006,"346 1ST AVENUE, New York City",4
791,FIRST OASIS,11209,7182384505,European,A,-74.0306069,40.6180063,"9218 4 AVENUE, New York City",4.5
792,FRANK'S LOUNGE & BAR,11217,7186259339,American,,-73.9758026,40.68663,"660 FULTON STREET, New York City",4.5
793,THE NEW PORTALES TAQUERIA,11106,7182046736,Mexcian,A,-73.9726193,40.7928328,"2508A BROADWAY, New York City",4.5
794,DOMA NA ROHU,10014,2129294339,European,A,-74.0045175,40.7311431,"27 12 MORTON STREET, New York City",4
795,TILILA BAR & GRILL,10463,9292224968,European,,-73.8980108,40.8837399,"3648 BAILEY AVE, New York City",4
796,POSH TOMATO,11223,7186769353,Other,,-73.9666285,40.5974808,"502 AVENUE U, New York City",2
797,JACK DOYLES PUB & RESTAURANT,10001,2122681255,European,A,-73.9918619,40.7520873,"240 WEST   35 STREET, New York City",3
798,GOOD COMPANY TAVERN,11362,7184280987,American,A,-73.7345694,40.7713236,"25332 NORTHERN BOULEVARD, New York City",5
799,FELICE,10028,2122494080,Italian,,-73.9510928,40.7749003,"1593 1 AVENUE, New York City",4.5
800,LOUIE AND CHAN,10002,2128372816,Italian,,-73.9924425,40.7185857,"303-305 BROOME ST, New York City",4
801,PADOCA BAKERY,10065,2123004543,QuickMeal,A,-73.9580679,40.7654583,"359 E 68TH ST, New York City",2.5
802,LA MIA PIZZA,10075,2124721200,QuickMeal,B,-73.9531563,40.7712704,"1488 1 AVENUE, New York City",3.5
803,FRANCESCO'S PIZZERIA & TRATTORIA,11231,7188340863,QuickMeal,B,-73.9809317,40.714258,"529 HENRY STREET, New York City",3
804,BRASSERIE LES HALLES,10038,2122858585,European,A,-74.0087452,40.7100313,"15 JOHN STREET, New York City",5
805,PLAZA BAGELS & DELI,10306,7183513906,QuickMeal,A,-74.1178949,40.5734906,"73 NEW DORP PLAZA, New York City",3.5
806,LUIGI'S RESTAURANT,11040,7183477136,Italian,A,-73.7075077,40.7495887,"26521 UNION TURNPIKE, New York City",4
807,DIRTY PIERRES BISTRO,11375,7188309698,European,B,-73.8453482,40.7192768,"13 STATION SQUARE, New York City",3
808,NEW NO 1 CHINESE RESTAURANT,11212,7184950905,Chinese,A,-73.9246017,40.6585041,"1007 CLARKSON AVENUE, New York City",5
809,DEVON & BLAKELY,10003,2126610101,American,A,-73.9760147,40.7551374,"250 PARK AVENUE, New York City",5
810,Stand # 425 (HOT DOGS),11368,7185958100,American,A,-73.8247108,40.7607527,"126 ROOSEVELT AVENUE, New York City",2.5
811,CHECKERS,11208,3475337800,QuickMeal,,-73.8668327,40.6785832,"1146 LIBERTY AVE, New York City",3.5
812,MERMAID INN,10003,2126745870,Seafood,A,-73.9884429,40.7269975,"96 2 AVENUE, New York City",3.5
813,ANN & TONY'S RESTAURANT,10458,7189331469,Italian,,-73.8875667,40.8558441,"2407 ARTHUR AVENUE, New York City",4.5
814,UNITED CYPRIANS OF AMERICA,11102,7182789677,European,A,-73.9204199,40.770395,"2816 ASTORIA BOULEVARD, New York City",4
815,RED HOOK BAIT AND TACKLE,11231,7184514665,American,A,-74.0111571,40.6791299,"320 VAN BRUNT ST, New York City",4
816,2 IN 1 RESTAURANT,11234,7183380688,Chinese,,-73.9326009,40.6184005,"2108 FLATBUSH AVENUE, New York City",4
817,PADDY'S ON THE BAY,10465,7184306651,American,,-73.8034964,40.8101355,"50 PENNYFIELD AVENUE, New York City",2.5
818,PIZZA CON VITAMINAS,11355,7185709629,QuickMeal,A,-73.8326848,40.7525152,"4444 COLLEGE PT BLVD, New York City",4
819,BENTO SUSHI,10010,2124378744,Asian,A,-74.0101588,40.7100042,"173 BROADWAY, New York City",4
820,GREEN POINT DINER,11222,7183490033,American,A,-73.9532416,40.8099485,"1035 MANHATTAN AVENUE, New York City",4.5
821,CHINA GARDEN CHINESE RESTAURANT,11415,7185750111,Chinese,,-73.8299911,40.7134782,"8045 KEW GARDENS ROAD, New York City",3.5
822,PICNIC PERLA RESTAURANTE,11218,7184350359,Mexcian,B,-73.9863963,40.6401819,"3913 13 AVENUE, New York City",3
823,EL HORNERO BAKERY,11368,7186510400,QuickMeal,B,-73.8688719,40.7491189,"9608 ROOSEVELT AVENUE, New York City",3.5
824,HOMETOWN HOTPOT & BBQ,10013,2122198833,Asian,,-73.996849,40.719403,"194 GRAND ST, New York City",4
825,PAPAZZIO RESTAURANT,11361,7182291962,Italian,A,-73.7716299,40.7642338,"3938 BELL BOULEVARD, New York City",3
826,SALUMERIA BEILLESE/ BIRICCHINO REST,10001,2127367376,Italian,A,-73.99556,40.748852,"378 8 AVENUE, New York City",4
827,WEN GEE HOUSE,11231,7185227246,Chinese,,-74.010713,40.6788979,"287 VAN BRUNT STREET, New York City",4
828,Little Gio's Pizza,10009,2124778020,QuickMeal,,-73.9877463,40.7236857,"26 1ST AVE, New York City",3.5
829,NOBI SUSHI,10016,2124818333,Asian,A,-73.9795355,40.7433431,"437 3 AVENUE, New York City",2.5
830,GOOD TASTE RESTAURANT,11101,7187068777,Chinese,A,-73.9335947,40.754338,"3801 29 STREET, New York City",5
831,PER SE,10019,2128239335,American,,-73.9831903,40.7684251,"10 COLUMBUS CIRCLE, New York City",3.5
832,MC SWIGGANS,10010,2126833180,European,A,-73.9813738,40.7377691,"393 2 AVENUE, New York City",5
833,L'UNIQUE BAR & RESTAURANT,11226,3474258686,Mexcian,,-73.948376,40.642569,"1773 NOSTRAND AVE, New York City",4.5
834,SIGGY'S NYC,10012,2122265775,American,,-73.9931241,40.7247506,"292 ELIZABETH STREET, New York City",1.5
835,ANNIE CHAN'S RESTAURANT,11366,7187401773,Other,,-73.7789294,40.7300568,"19011 UNION TURNPIKE, New York City",5
836,RIAZOR BLUE TAPAS BAR,11372,7184248464,European,B,-73.8786527,40.7565181,"8905 NORTHERN BOULEVARD, New York City",4
837,PHO VIET,11232,7186333358,Asian,,-73.9356831,40.8314596,"4317 8 AVENUE, New York City",4
838,DI DI,10302,7188150822,Chinese,,-74.1339565,40.6367718,"183 PORT RICHMOND AVE, New York City",3
839,THE BAGEL FACTORY,11215,7187688300,QuickMeal,A,-73.9813925,40.7522359,"461 5TH AVE, New York City",3
840,LITTLE RASCAL,10012,2129660446,Other,B,-73.9950601,40.7208588,"163 ELIZABETH STREET, New York City",4
841,HER NAME IS HAN,10016,2127799990,Asian,A,-73.9847678,40.746205,"17 E 31ST ST, New York City",5
842,TABU,10034,2123040144,American,A,-73.9275851,40.8660953,"227 DYCKMAN STREET, New York City",3.5
843,METATE MEXICAN RESTAURANT,10463,7185434444,Mexcian,,-73.9100835,40.8860757,"3515 JOHNSON AVENUE, New York City",5
844,SOUTH SHORE HOT BAGELS,10309,7182278600,QuickMeal,A,-74.23911,40.523132,"4882 ARTHUR KILL RD, New York City",4.5
845,UNITED KITCHEN,11208,7182775162,Chinese,A,-73.8815488,40.6764545,"766 LIBERTY AVENUE, New York City",3.5
846,MCGARRY'S,10001,2128102115,American,,-73.9968647,40.7530594,"417 9 AVENUE, New York City",4.5
847,MARTHA'S COUNTRY BAKERY,11375,7185440088,QuickMeal,A,-73.8460394,40.7203786,"7028 AUSTIN ST, New York City",4.5
848,BY THE SLICE,11426,7183437100,American,B,-73.730986,40.727562,"23609 BRADDOCK AVENUE, New York City",3
849,PHAYUL RESTAURANT,11372,7184241869,Asian,,-73.8912357,40.7471627,"3765 74 STREET, New York City",4
850,CARACAS BEACH CAFE,11693,7182130038,American,A,-73.8260751,40.5805679,"10601 SHORE FRONT PKWY, New York City",1.5
851,DAVID PIZZERIA,11219,7187485860,QuickMeal,A,-74.0077401,40.6313205,"6305 FORT HAMILTON PARKWAY, New York City",4
852,FU SING,10032,2129289174,Chinese,A,-73.9387179,40.8467302,"4151 BROADWAY, New York City",2
853,LI YUAN RESTAURANT AND BAKERY,10018,2125756978,Chinese,A,-73.9910991,40.7547005,"273 WEST   38 STREET, New York City",4
854,CAFE EXCHANGE,10006,2124255000,American,,-74.0133097,40.7068075,"49 BROADWAY, New York City",5
855,IL SALUMAIO WINE BAR,10128,6468526876,Italian,,-73.9504161,40.7802133,"1731 2ND AVE, New York City",2.5
856,CHINA PAGODA,11209,7182386184,Chinese,,-73.9728946,40.7644711,"6918 5 AVENUE, New York City",4
857,THE GUTHRIE INN,10029,6074250077,American,,-73.9515582,40.7873035,"1259 PARK AVENUE, New York City",3
858,MOUSTACHE RESTAURANT,10014,2122292220,European,,-74.0053175,40.7323981,"90 BEDFORD STREET, New York City",3.5
859,PICK A BAGEL,10019,2125828333,QuickMeal,A,-73.9849363,40.7644561,"891 8 AVENUE, New York City",3.5
860,BUTTER LANE,10009,2126772880,QuickMeal,A,-73.9841561,40.7264815,"123 E 7TH ST, New York City",4
861,GINO'S PIZZA EXPRESS,11379,7188061650,QuickMeal,A,-73.8741216,40.7225667,"6269 DRY HARBOR RD, New York City",3.5
862,SUNY MARITIME UNIVERSITY (S AND E CAFE),10465,7184095092,Dessert,,-73.8011369,40.8091766,"6 PENNYFIELD AVENUE, New York City",5
863,TALK OF THE TOWN,10308,7189489442,Dessert,A,-74.1506081,40.5514034,"24 GIFFORDS LANE, New York City",4.5
864,STUMPY'S SPOT,11212,3472406300,Mexcian,,-73.9152559,40.6617684,"777 SARATOGA AVENUE, New York City",3
865,CHEZ ALAIN RESTAURAUNT,10027,2126787820,Other,B,-73.9496627,40.8073283,"2046 7TH AVE, New York City",3.5
866,UDON WEST,10017,2129229677,Asian,A,-73.9735768,40.7535316,"150 E 46TH ST, New York City",5
867,CRAVATH CAFE,10019,2124744863,American,A,-73.986943,40.7622227,"825 8 AVENUE, New York City",4
868,EL QUIJOTE,10011,2129291855,European,,-73.9971209,40.7444167,"226 W 23RD ST, New York City",2.5
869,CLASSIC PIZZA & RESTAURANT,10306,7189872500,QuickMeal,,-74.1279156,40.5755572,"3201B RICHMOND ROAD, New York City",5
870,BAKEWELL BAKERY & RESTAURANT,11419,7183225600,Mexcian,,-73.8174825,40.6885952,"127-08 LIBERTY AVE, New York City",4
871,PRET A MANGER,10001,2129676760,American,A,-73.9893869,40.7485519,"106 WEST 32ND STREET, New York City",1
872,SAMBONG NAENG MYUN,11361,7182297200,Asian,A,-73.7734395,40.7595321,"20935 NORTHERN BLVD, New York City",3
873,CARLOS PIZZA,11379,7188947915,QuickMeal,,-73.8781243,40.7126348,"7402 METROPOLITAN AVENUE, New York City",4.5
874,LA BELLA PIZZA,10302,7189815508,QuickMeal,A,-74.1374915,40.6258454,"1499 FOREST AVENUE, New York City",4.5
875,BRAAI,10019,2123153315,Other,B,-73.9868019,40.7636412,"329 WEST 51 STREET, New York City",3.5
876,JERK HUT,11413,7187125910,Mexcian,,-73.7391028,40.6759102,"23107 MERRICK BOULEVARD, New York City",4.5
877,BAGEL CORNER,10463,7185499709,QuickMeal,A,-73.9110201,40.8860279,"581 WEST  235 STREET, New York City",1
878,CUENCA COFFEE SHOP RESTAURANT,11421,7188474642,American,,-73.8493574,40.6946695,"9529 JAMAICA AVENUE, New York City",1
879,GOOD HOPE RESTAURANT,11419,7188480225,Chinese,,-73.82198,40.687317,"121-15 LIBERTY AVE, New York City",4.5
880,CURRY LEAVES RESTAURANT,11354,7187629313,Asian,C,-73.8680742,40.7486515,"13531 40 ROAD, New York City",3.5
881,EL GRAN CANARIO RESTAURANT,11211,7183885502,American,,-73.9539635,40.7104851,"174 BORINQUEN PLACE, New York City",4
882,BECKETT'S,10004,2122691001,American,A,-74.0103355,40.7041286,"81 PEARL STREET, New York City",5
883,AUDREY'S CONCERTO,11214,7182662829,Dessert,,-73.9894131,40.5995419,"2379 86 STREET, New York City",4.5
884,NO.1 KITCHEN,11234,7189681198,Chinese,A,-73.9236302,40.6288135,"5405 FLATLANDS AVENUE, New York City",4.5
885,EL NUEVO POLLO RESTURANT #2,10462,3478105304,American,A,-73.8677004,40.8451067,"651 MORRIS PARK AVENUE, New York City",3
886,BAKER STREET PUB,10065,2126889663,American,,-73.9831043,40.7311197,"1152 1 AVENUE, New York City",4
887,D'MERA RESTAURANT,10460,7188290023,American,,-73.8671131,40.8375168,"1800 ARCHER ST, New York City",3.5
888,EASTERN CHINESE RESTAURANT,11106,7182787333,Chinese,A,-73.9885806,40.7446279,"2105 BROADWAY, New York City",5
889,DON ALEX RESTAURANT,11372,7184245187,Other,,-73.8972954,40.7483799,"9504 37 AVENUE, New York City",5
890,TOASTIES CAFE,10022,2126448780,American,,-73.9346995,40.8081339,"599 LEXINGTON AVENUE, New York City",2
891,CUCINA BENE PIZZERIA,10029,2122560943,QuickMeal,,-73.9701103,40.7596014,"1505 LEXINGTON AVE, New York City",4
892,LIU BU,11355,7188880099,Asian,,-73.8172999,40.7518077,"14008 HOLLY AVE, New York City",2
893,POLLOS A LA BRASA MARIO,11372,7184578800,American,,-73.930069,40.754419,"8302 37 AVENUE, New York City",1.5
894,THE BLACK ROSE NY,10009,2122530400,American,A,-73.9803735,40.7303821,"117 AVENUE A, New York City",3.5
895,LAZY IBIS,11238,7186764150,Dessert,,-73.8996499,40.8349918,"663 FRANKLIN AVE, New York City",3.5
896,EL GRAND CHEF RESTAURANT & PIZZERIA,10457,7182900996,European,,-73.8701882,40.8396727,"237 E TREMONT AVE, New York City",4.5
897,WAH FUNG 1 FAST FOOD,10002,2129255175,Chinese,,-73.9929172,40.7199205,"79 CHRYSTIE STREET, New York City",4
898,UNION BANK OF SWITZERLAND,10019,2127139699,American,A,-73.9996651,40.7329641,"1285 AVENUE OF THE AMERICAS, New York City",5
899,CHEITO DURAN DELI GROCERY,11378,7183865466,QuickMeal,A,-73.9219292,40.7093665,"5406 FLUSHING AVENUE, New York City",1.5
900,BELLE SHOALS,11211,7182187191,American,,-73.9577918,40.7137325,"10 HOPE STREET, New York City",4
901,BETTOLONA,10027,2127491125,Italian,A,-73.9820967,40.7651759,"3143 BROADWAY, New York City",3.5
902,GLENDALE DINER,11385,7183668846,European,,-73.9113162,40.6995129,"7108 MYRTLE AVENUE, New York City",5
903,HAPPY SU GARDEN,11354,9173658308,Chinese,B,-73.8622285,40.7499258,"13620 ROOSEVELT AVENUE, New York City",3.5
904,HAN BAT RESTAURANT,10001,2126295588,Asian,,-73.9147011,40.7696661,"53 WEST   35 STREET, New York City",3.5
905,THE DUGOUT,10452,7185886912,American,B,-73.9260361,40.8276731,"880 RIVER AVENUE, New York City",3.5
906,CATHERINE BAKERY,11354,7183218878,QuickMeal,B,-73.8461823,40.7775052,"4049 COLLEGE POINT BOULEVARD, New York City",4.5
907,SING FEI RESTAURANT,10467,7187986677,Chinese,Z,-73.8413065,40.8678973,"263 E GUN HILL RD, New York City",4
908,LUIGIS PIZZERIA,11205,7187832430,QuickMeal,,-73.9159529,40.7075425,"326 DEKALB AVE, New York City",3.5
909,DOLCINO TRATTORIA TOSCANA,10016,2124489505,Italian,A,-73.9329676,40.8036591,"517 2 AVENUE, New York City",4
910,CAFE HABANA/CAFE HABANA TO GO,10012,2126252001,American,A,-73.9985916,40.7246334,"17 PRINCE STREET, New York City",5
911,CLUB PACC - Y & B ENTERTAINMENT MANOR,11354,7188881778,Asian,A,-73.8330007,40.7608449,"3509 PRINCE STRRET, New York City",2.5
912,LITTLE PIE COMPANY,10036,2127364780,QuickMeal,,-73.9914472,40.7588055,"424 WEST   43 STREET, New York City",2.5
913,KIKOO SUSHI,10003,2125333888,Asian,C,-73.9746865,40.7421655,"141 1ST AVE, New York City",3.5
914,BOSTON JERK-CITY RESTAURANT,11203,7186293002,Mexcian,,-73.9316158,40.663297,"1344 UTICA AVENUE, New York City",3.5
915,ENERGY FUEL,11209,7184918686,QuickMeal,,-74.0062142,40.6524929,"9522 4TH AVE, New York City",4
916,YERBA BUENA,10014,2126200808,American,A,-74.0011456,40.73658,"57 GREENWICH AVENUE, New York City",4
917,COVE LOUNGE,10027,2126653455,American,,-73.9440038,40.8096716,"325 LENOX AVENUE, New York City",2
918,PATRIZIA'S OF BROOKLYN,10308,7183176600,Italian,A,-74.1217213,40.5749137,"4255 AMBOY ROAD, New York City",2
